ID,LANGUAGE,CITY,ZIP_CODE,COMMUNAL_CODE,CANTON_CODE,REGION_CODE,LONGITUDE,LATITUDE
7469203b-6e98-486e-a920-3b6e98f86e46,de,Lausanne,1000,5586,VD,VD01,6.6523078,46.552043
1797490b-a0d5-4b1c-9749-0ba0d5fb1c04,de,Lausanne 10,1000,5586,VD,VD01,null,null
be2caa93-60d1-4923-acaa-9360d109235e,de,Lausanne 12,1000,5586,VD,VD01,null,null
a3969d3c-93bc-449e-969d-3c93bcf49e7e,de,Lausanne 14,1000,5586,VD,VD01,null,null
20154674-dd97-4967-9546-74dd9759679c,de,Lausanne 16,1000,5586,VD,VD01,null,null
62f169a8-18de-481f-b169-a818de881fbf,de,Lausanne 18,1000,5586,VD,VD01,null,null
a2f6d81e-89be-4a66-b6d8-1e89be5a66c2,de,Lausanne 20,1000,5586,VD,VD01,null,null
3c4b5411-572e-4fdb-8b54-11572e8fdbe7,de,Lausanne 22,1000,5586,VD,VD01,null,null
37b41d3b-a2b2-492c-b41d-3ba2b2c92c1c,de,Lausanne 23,1000,5586,VD,VD01,null,null
511c7825-315d-47d0-9c78-25315da7d0d5,de,Lausanne 25,1000,5586,VD,VD01,6.6523078,46.552043
e3e7dac7-550c-4369-a7da-c7550cc369b6,de,Lausanne 26,1000,5586,VD,VD01,6.6523078,46.552043
d6315f6f-45b0-48cf-b15f-6f45b0b8cfb5,de,Lausanne 27,1000,5586,VD,VD01,6.6523078,46.552043
dca56b47-6883-4be6-a56b-476883fbe632,it,Losanna,1000,5586,VD,VD01,6.6523078,46.552043
d8f2d02a-7721-409e-b2d0-2a7721c09e69,it,Losanna,1000,5586,VD,VD01,null,null
61fe0aac-d54d-4737-be0a-acd54d6737c6,it,Losanna 12,1000,5586,VD,VD01,null,null
07ed0965-83a1-4d89-ad09-6583a14d895e,it,Losanna 14,1000,5586,VD,VD01,null,null
9b3a6927-68df-4b9b-ba69-2768df4b9bdc,it,Losanna 16,1000,5586,VD,VD01,null,null
07e18d8d-3a26-4b71-a18d-8d3a266b7101,it,Losanna 20,1000,5586,VD,VD01,null,null
9199e52f-63a9-46ab-99e5-2f63a9b6abec,it,Losanna 22,1000,5586,VD,VD01,null,null
3230bf24-3f52-444a-b0bf-243f52f44a6d,it,Losanna 23,1000,5586,VD,VD01,null,null
7e25c8c8-0e6f-403f-a5c8-c80e6f603f2a,it,Losanna 26,1000,5586,VD,VD01,6.6523078,46.552043
25f32fcb-e6ee-45e1-b32f-cbe6eea5e1de,it,Losanna 27,1000,5586,VD,VD01,6.6523078,46.552043
13d19120-debc-410a-9191-20debc510af3,de,Lausanne,1001,5586,VD,VD01,null,null
44cba65e-b458-43cd-8ba6-5eb458b3cd23,it,Losanna 1,1001,5586,VD,VD01,null,null
f64e0a74-b35b-4509-8e0a-74b35b85098c,de,Lausanne,1002,5586,VD,VD01,null,null
13e11631-4f4a-4b3f-a116-314f4aab3f3d,it,Losanna,1002,5586,VD,VD01,null,null
cccc53bd-a99d-4ceb-8c53-bda99d6ceb6f,de,Lausanne,1003,5586,VD,VD01,6.6523078,46.552043
4049dfae-facf-46fa-89df-aefacf96faf1,it,Losanna,1003,5586,VD,VD01,6.6523078,46.552043
ff27b659-4d1f-47e6-a7b6-594d1fb7e62b,de,Lausanne,1004,5586,VD,VD01,6.63233,46.519595
3f4a016a-a686-4fdd-8a01-6aa686dfdd5a,it,Losanna,1004,5586,VD,VD01,6.63233,46.519595
a6b1a15f-a7b3-4c88-b1a1-5fa7b32c881e,de,Lausanne,1005,5586,VD,VD01,6.63233,46.519595
024c2219-6c04-48df-8c22-196c0468dfe9,it,Losanna,1005,5586,VD,VD01,6.63233,46.519595
ad8597d2-450e-45f0-8597-d2450e05f062,de,Lausanne,1006,5586,VD,VD01,6.63233,46.519595
7dc18c47-3c1c-42e6-818c-473c1cd2e675,it,Losanna,1006,5586,VD,VD01,6.63233,46.519595
502c4046-48cb-4f38-ac40-4648cbef3878,de,Lausanne,1007,5586,VD,VD01,6.63233,46.519595
4ae47a24-25ed-48c6-a47a-2425edf8c698,it,Losanna,1007,5586,VD,VD01,6.63233,46.519595
bacd50ac-2136-4d96-8d50-ac2136bd960c,de,Jouxtens-Mézery,1008,5585,VD,VD01,6.6049736,46.538896
7de8bb45-7e12-4c1d-a8bb-457e12ac1d4f,de,Prilly,1008,5589,VD,VD01,6.6049736,46.538896
521fe24d-81c1-4c78-9fe2-4d81c12c7893,de,Pully,1009,5590,VD,VD01,6.6694965,46.521538
b7e6edbf-05fe-46ce-a6ed-bf05fe46ce57,de,Lausanne,1010,5586,VD,VD01,6.6523078,46.552043
0fbb70df-ce0f-4f8e-bb70-dfce0fff8eb2,de,Lausanne,1011,5586,VD,VD01,6.64295,46.525429
e045fa24-477f-4fad-85fa-24477f9fad7d,de,Lausanne,1012,5586,VD,VD01,6.65689,46.52631
17bd5fd0-cbc6-400c-bd5f-d0cbc6700ccd,it,Losanna,1012,5586,VD,VD01,6.65689,46.52631
136fec75-ea5f-4201-afec-75ea5f2201b8,de,Lausanne Adm cant VD,1014,5586,VD,VD01,null,null
1605b949-62aa-49e2-85b9-4962aaf9e2b8,de,Lausanne,1015,5635,VD,VD02,6.6523078,46.552043
850830e3-a833-4fd6-8830-e3a8339fd6a4,de,Lausanne Charles Veillon SA,1017,5586,VD,VD01,null,null
f1183139-9149-4d34-9831-399149bd341b,de,Lausanne,1018,5586,VD,VD01,6.6523078,46.552043
cc78d692-14a9-4d36-b8d6-9214a9ed3635,de,Lausanne Services spéciaux,1019,5586,VD,VD01,null,null
946c369a-578f-4f02-ac36-9a578f9f02fe,de,Renens VD,1020,5591,VD,VD01,6.593655,46.535299
9f57e221-7b17-42cc-97e2-217b1792cc8d,de,Renens VD 1,1020,5591,VD,VD01,null,null
7e8f313b-72c1-4ac5-8f31-3b72c1aac5be,de,Renens VD 2,1020,5591,VD,VD01,null,null
432235a7-e7d9-447a-a235-a7e7d9b47af3,de,Chavannes-près-Renens,1022,5627,VD,VD02,null,null
0353bbea-f8cc-4e10-93bb-eaf8cc3e1057,de,Crissier,1023,5583,VD,VD01,6.5773091,46.558481
fbef0e4d-d79f-4467-af0e-4dd79f946706,de,Crissier 1,1023,5583,VD,VD01,null,null
07e86612-7f06-4863-a866-127f06b86393,de,Ecublens VD,1024,5635,VD,VD02,6.550683,46.52719
6f572e82-39b5-4127-972e-8239b5e127bc,de,St-Sulpice VD,1025,5648,VD,VD02,6.539072,46.512148
4d1601d7-d57e-405f-9601-d7d57e605f20,de,Denges,1026,5632,VD,VD02,6.533801,46.519399
1baed1ad-fbf4-4758-aed1-adfbf407588d,de,Echandens,1026,5633,VD,VD02,6.533801,46.519399
3791dd66-9a05-4718-91dd-669a05c718b2,de,Echandens-Denges,1026,5633,VD,VD02,null,null
9fbd550c-e081-4868-bd55-0ce081a86894,de,Lonay,1027,5638,VD,VD02,6.5169339,46.529868
d6f717d4-8045-4e37-b717-d480455e3745,de,Préverenges,1028,5643,VD,VD02,6.5290018,46.516057
b3caca07-bcc1-4c53-8aca-07bcc11c5311,de,Villars-Ste-Croix,1029,5651,VD,VD02,6.560968,46.565837
5f144969-6981-42bd-9449-69698142bdf8,de,Bussigny,1030,5624,VD,VD02,6.550058,46.552254
48239634-0f9a-4cac-a396-340f9a7cac0f,de,Mex VD,1031,5489,VD,VD02,6.543879,46.572937
47acf9a2-4ec6-4736-acf9-a24ec647369d,de,Romanel-sur-Lausanne,1032,5592,VD,VD01,null,null
24582a6f-a354-4871-982a-6fa354987190,de,Cheseaux-sur-Lausanne,1033,5582,VD,VD01,null,null
25aecdae-85ac-41d0-aecd-ae85ac11d09a,de,Boussens,1034,5473,VD,VD02,6.581737,46.598316
d4cf8856-843a-4d93-8f88-56843a1d93b5,de,Bournens,1035,5472,VD,VD02,6.563911,46.608669
2c70fba8-abda-4872-b0fb-a8abda88723c,de,Sullens,1036,5501,VD,VD02,6.566006,46.589389
b85449d6-5cb0-47e5-9449-d65cb0a7e5c1,de,Etagnières,1037,5521,VD,VD02,6.6085046,46.601426
1320ad14-92bb-4f79-a0ad-1492bbff7952,de,Bercher,1038,5512,VD,VD02,6.7062034,46.691642
bbe77c94-d26d-4448-a77c-94d26d244891,de,Cheseaux Polyval,1039,5582,VD,VD01,null,null
e8c3fe42-1eb7-4628-83fe-421eb776287f,de,Echallens,1040,5518,VD,VD02,6.6351987,46.638457
809aa23c-f259-416c-9aa2-3cf259716c04,de,St-Barthélemy VD,1040,5535,VD,VD02,6.6351987,46.638457
968f8de8-cf81-43d0-8f8d-e8cf8103d09a,de,Villars-le-Terroir,1040,5537,VD,VD02,6.6351987,46.638457
d30f8e0b-70b4-4b0d-8f8e-0b70b43b0d87,de,Bottens,1041,5514,VD,VD02,6.693623,46.612293
cf9f5976-b33c-46f1-9f59-76b33c36f153,de,Dommartin,1041,5540,VD,VD02,6.693623,46.612293
ba25f484-aa06-4229-a5f4-84aa069229c4,de,Montaubion-Chardonney,1041,5804,VD,VD02,null,null
ac21e2dd-7401-4663-a1e2-dd7401366305,de,Naz,1041,5540,VD,VD02,6.693623,46.612293
9128883a-c8df-4a34-a888-3ac8dfda3439,de,Poliez-Pittet,1041,5533,VD,VD02,6.693623,46.612293
f569be27-dc3a-4f5d-a9be-27dc3aaf5dbc,de,Poliez-le-Grand,1041,5540,VD,VD02,6.693623,46.612293
7285fba6-b176-4c2d-85fb-a6b176dc2dd2,de,Assens,1042,5511,VD,VD02,6.5748561,46.624188
54987fed-8f08-4424-987f-ed8f08642459,de,Bettens,1042,5471,VD,VD02,6.5748561,46.624188
97d323fd-b7d9-45f0-9323-fdb7d965f010,de,Bioley-Orjulaz,1042,5513,VD,VD02,6.5748561,46.624188
fab5ea8a-8816-412a-b5ea-8a8816d12a39,de,Sugnens,1043,5540,VD,VD02,6.671968,46.651148
fa14bd93-025a-4db3-94bd-93025a2db3d1,de,Fey,1044,5522,VD,VD02,6.678434,46.672851
89de7083-5396-4cd7-9e70-8353967cd7dd,de,Ogens,1045,5680,VD,VD03,6.719208,46.705933
7d18a812-927c-4f61-98a8-12927c6f6151,de,Rueyres,1046,5534,VD,VD02,null,null
492cd483-bc57-48f8-acd4-83bc57e8f8b1,de,Oppens,1047,5923,VD,VD03,null,null
2069cda2-887c-4d2a-a9cd-a2887c5d2a92,de,Le Mont-sur-Lausanne,1052,5587,VD,VD01,null,null
1a457b20-3c5b-41a5-857b-203c5bb1a518,de,Bretigny-sur-Morrens,1053,5515,VD,VD02,null,null
0788b797-e18f-4046-88b7-97e18fd046e2,de,Cugy VD,1053,5516,VD,VD02,6.640643,46.596563
c754e444-68cf-4600-94e4-4468cfd60082,de,Morrens VD,1054,5527,VD,VD02,6.585893,46.589857
78a6b130-3d6d-4a95-a6b1-303d6d1a954f,de,Froideville,1055,5523,VD,VD02,6.6917237,46.598179
d12b35b1-b13f-4b48-ab35-b1b13feb48b4,de,Villars-Tiercelin,1058,5804,VD,VD02,6.705818,46.618599
01d4aa16-2cf1-4143-94aa-162cf1514316,de,Peney-le-Jorat,1059,5804,VD,VD02,6.730512,46.624096
a21dcf84-56dd-40ad-9dcf-8456dda0ad58,de,Villars-Mendraz,1061,5804,VD,VD02,6.726124,46.643529
386ef2e1-e9fd-41f4-aef2-e1e9fdf1f4f3,de,Sottens,1062,5804,VD,VD02,6.738431,46.652751
63c379d0-000b-4176-8379-d0000b317608,de,Boulens,1063,5661,VD,VD03,6.753676,46.660073
ce4c88d2-fbde-48ac-8c88-d2fbde18ac1e,de,Chapelle-sur-Moudon,1063,5693,VD,VD03,null,null
280423ca-57e3-4b38-8423-ca57e38b3812,de,Martherenges,1063,5693,VD,VD03,6.753676,46.660073
1fba2fcf-f4a9-4b1b-ba2f-cff4a93b1bb4,de,Peyres-Possens,1063,5693,VD,VD03,6.753676,46.660073
aa2713b9-71cf-47e0-a713-b971cfd7e021,de,Epalinges,1066,5584,VD,VD01,6.6684324,46.550714
24c3b981-833d-4df0-83b9-81833d8df0ce,de,Les Monts-de-Pully,1068,5590,VD,VD01,6.689425,46.536285
1abb8a78-2939-4fe6-bb8a-782939dfe670,de,Puidoux,1070,5607,VD,VD02,6.784104,46.508573
433a6df9-dd21-4d61-ba6d-f9dd21ed61fa,de,Chexbres,1071,5601,VD,VD02,6.7800263,46.484323
6fe28fd3-acd4-4ce3-a28f-d3acd41ce37b,de,Rivaz,1071,5609,VD,VD02,6.7800263,46.484323
ee7c0384-4880-455e-bc03-844880955e75,de,St-Saphorin (Lavaux),1071,5610,VD,VD02,null,null
0e852975-92f9-4ad0-8529-7592f9aad07a,de,Forel (Lavaux),1072,5604,VD,VD02,6.7628488,46.537892
aad8b238-f2d1-429b-98b2-38f2d1929b16,de,Mollie-Margot,1073,5611,VD,VD02,6.7270088,46.548892
88ba4148-1224-4929-ba41-48122489290b,de,Savigny,1073,5611,VD,VD02,6.7270088,46.548892
45de7bfc-a3da-46b9-9e7b-fca3da26b9c6,de,Ferlens VD,1076,5806,VD,VD02,6.74403,46.585676
aa91d74b-ca92-4b35-91d7-4bca923b3573,de,Servion,1077,5799,VD,VD02,6.776623,46.573372
a7258fd4-90da-49a3-a58f-d490da09a31c,de,Essertes,1078,5788,VD,VD02,6.785426,46.561225
0341a739-b6fe-499f-81a7-39b6fec99f6d,de,Les Cullayes,1080,5799,VD,VD02,6.754425,46.568218
bde74530-912a-441d-a745-30912ae41de3,de,Montpreveyres,1081,5792,VD,VD02,6.7305646,46.581299
e55b6513-1ce5-4ed4-9b65-131ce51ed425,de,Corcelles-le-Jorat,1082,5785,VD,VD02,6.730338,46.600963
d16a2d8b-a541-46fb-aa2d-8ba54126fb11,de,Mézières VD,1083,5806,VD,VD02,6.760865,46.586341
fd6b6484-bd22-4eda-ab64-84bd22bedae3,de,Carrouge VD,1084,5806,VD,VD02,6.766514,46.599449
aad79c40-36e8-4682-979c-4036e80682f6,de,Vulliens,1085,5803,VD,VD02,6.793369,46.622192
f1073485-8421-4c39-8734-858421ec39f3,de,Ropraz,1088,5798,VD,VD02,6.752623,46.613243
b11323e6-cae4-41dc-9323-e6cae421dc28,de,La Croix (Lutry),1090,5606,VD,VD02,6.702551,46.516119
8f05b46f-bb5c-496c-85b4-6fbb5cb96c18,de,Aran,1091,5613,VD,VD02,6.721974,46.503367
c8b74800-ce04-4bb5-b748-00ce04dbb510,de,Chenaux,1091,5613,VD,VD02,6.721974,46.503367
eb97a221-f120-4907-97a2-21f120090792,de,Grandvaux,1091,5613,VD,VD02,6.721974,46.503367
8cfb82cd-dff1-4b47-bb82-cddff1fb471f,de,Belmont-sur-Lausanne,1092,5581,VD,VD01,null,null
648bbdfc-82a1-4565-8bbd-fc82a1456564,de,La Conversion,1093,5606,VD,VD02,6.677415,46.513315
044d69ae-2f62-4592-8d69-ae2f62e5922b,de,Paudex,1094,5588,VD,VD01,6.6736302,46.508387
d6917f51-9410-4b80-917f-5194107b80bf,de,Lutry,1095,5606,VD,VD02,6.698962,46.515086
1f1f929f-ffc7-4249-9f92-9fffc76249b0,de,Cully,1096,5613,VD,VD02,6.7316973,46.499065
9be8990f-38be-4a7d-a899-0f38beda7d88,de,Villette (Lavaux),1096,5613,VD,VD02,6.7316973,46.499065
72718049-c2d2-4840-b180-49c2d2284021,de,Riex,1097,5613,VD,VD02,6.733847,46.500392
884a0742-94e3-4e45-8a07-4294e39e4539,de,Epesses,1098,5613,VD,VD02,6.746229,46.495067
c36ea738-9749-4f2a-aea7-389749bf2abd,de,Morges,1110,5642,VD,VD02,6.4931306,46.51401
e4eb332d-3f17-4476-ab33-2d3f17d4769a,de,Morges 1,1110,5642,VD,VD02,null,null
5f1a1d12-bc06-4ec1-9a1d-12bc06cec1ed,de,Morges 2,1110,5642,VD,VD02,null,null
72de5c57-f9b7-4052-9e5c-57f9b70052e5,de,Echichens,1112,5634,VD,VD02,6.493396,46.526924
b20971ce-f3ab-47f5-8971-cef3abf7f592,de,St-Saphorin-sur-Morges,1113,5634,VD,VD02,null,null
0c2a094a-6f2f-488f-aa09-4a6f2fb88f3f,de,Colombier VD,1114,5634,VD,VD02,6.461996,46.55421
edac1e31-5732-453a-ac1e-315732e53ab4,de,Vullierens,1115,5654,VD,VD02,6.477375,46.573068
d36a90e9-3775-4c24-aa90-e937750c248a,de,Cottens VD,1116,5478,VD,VD02,6.453207,46.572465
1f841e53-d6b5-4700-841e-53d6b5f70097,de,Grancy,1117,5485,VD,VD02,6.463387,46.593785
f4cea40f-169c-4170-8ea4-0f169cb1706a,de,Bremblens,1121,5622,VD,VD02,6.518788,46.543998
0a2d8c9a-5712-4e49-ad8c-9a5712be4910,de,Romanel-sur-Morges,1122,5645,VD,VD02,6.508911,46.55617
9c8826be-75b9-46c2-8826-be75b956c235,de,Aclens,1123,5621,VD,VD02,6.510843,46.568259
d464d289-679c-43d0-a4d2-89679cc3d094,de,Gollion,1124,5484,VD,VD02,6.511818,46.585151
a5bb9916-d892-4c4e-bb99-16d8928c4ef3,de,Monnaz,1125,5634,VD,VD02,6.474588,46.53191
afaa9959-f0a1-4423-aa99-59f0a11423ad,de,Vaux-sur-Morges,1126,5650,VD,VD02,6.463538,46.530833
be34e5de-af90-4fd3-b4e5-deaf90cfd3cb,de,Clarmont,1127,5629,VD,VD02,6.445828,46.545933
cde981ed-c2b9-4fe1-a981-edc2b99fe1c6,de,Reverolle,1128,5644,VD,VD02,6.43971,46.538109
108e044d-d965-450b-8e04-4dd965e50b3d,de,Tolochenaz,1131,5649,VD,VD02,6.4771752,46.501632
f02b28dd-5708-4e3b-ab28-dd5708ce3bd9,de,Lully VD,1132,5639,VD,VD02,6.443697,46.500568
632c8ddc-3125-40eb-ac8d-dc312510eb73,de,Chigny,1134,5628,VD,VD02,6.473592,46.513821
7ccb05ac-5d73-40d5-8b05-ac5d73e0d588,de,Vufflens-le-Château,1134,5653,VD,VD02,null,null
68f3a56e-d587-4364-b3a5-6ed587a364f0,de,Denens,1135,5631,VD,VD02,6.452254,46.515855
90aa3c50-1b73-4fae-aa3c-501b732fae09,de,Bussy-Chardonney,1136,5625,VD,VD02,6.440662,46.528814
34428e28-695d-4794-828e-28695da7949e,de,Sévery,1141,5500,VD,VD02,6.440116,46.568625
354e2fc3-7c37-423d-8e2f-c37c37823d99,de,Pampigny,1142,5494,VD,VD02,6.4219753,46.586239
5c141d4b-63b0-4a2c-941d-4b63b07a2c26,de,Apples,1143,5421,VD,VD04,6.4165602,46.554983
388511e0-ef67-4792-8511-e0ef67b792c8,de,Ballens,1144,5423,VD,VD04,6.377318,46.553149
25031efc-fb79-46ad-831e-fcfb7956ada1,de,Bière,1145,5425,VD,VD04,6.3174853,46.547824
f8d4db11-09c7-4046-94db-1109c77046c6,de,Mollens VD,1146,5431,VD,VD04,6.338158,46.577414
bb14a015-2b5a-4f06-94a0-152b5a2f0631,de,Montricher,1147,5492,VD,VD02,6.369704,46.602411
0ac42426-7718-4a95-8424-2677183a9590,de,Chavannes-le-Veyron,1148,5475,VD,VD02,null,null
499ef040-7e8e-4f6b-9ef0-407e8e3f6b2e,de,Cuarnens,1148,5479,VD,VD02,6.3931408,46.624438
069a7133-540a-4fb7-9a71-33540a5fb7b6,de,L'Isle,1148,5486,VD,VD02,6.3931408,46.624438
29d76d85-aa86-4e2f-976d-85aa863e2fae,de,La Coudre,1148,5486,VD,VD02,6.3931408,46.624438
7c0b6cb9-027c-41ac-8b6c-b9027c11ac6c,de,La Praz,1148,5758,VD,VD03,6.3931408,46.624438
e36857ff-80ed-4d91-a857-ff80ed4d9100,de,Mauraz,1148,5488,VD,VD02,6.3931408,46.624438
d01c0fe2-7773-4068-9c0f-e27773a06891,de,Moiry VD,1148,5490,VD,VD02,6.3931408,46.624438
a3a738ce-457f-4d8c-a738-ce457fcd8c69,de,Mont-la-Ville,1148,5491,VD,VD02,6.3931408,46.624438
1722f2d2-63d3-4863-a2f2-d263d3f863ec,de,Villars-Bozon,1148,5486,VD,VD02,6.3931408,46.624438
770e8734-2edf-4ef9-8e87-342edfaef9f4,de,Berolle,1149,5424,VD,VD04,6.326259,46.56536
2a2fffaf-ad43-4dcc-afff-afad43adcc08,de,St-Prex,1162,5646,VD,VD02,6.447188,46.485439
0e03ece2-e7b4-41be-83ec-e2e7b4c1bec2,de,Etoy,1163,5636,VD,VD02,6.4217436,46.484237
9567d30b-5cd7-461a-a7d3-0b5cd7a61a20,de,Buchillon,1164,5623,VD,VD02,6.412819,46.465948
2ade46b2-f288-4576-9e46-b2f288f5768e,de,Allaman,1165,5851,VD,VD04,6.393875,46.469439
6fff7b66-fe8e-4fa0-bf7b-66fe8e4fa018,de,Perroy,1166,5860,VD,VD04,6.3590261,46.470191
54b1bfc6-b372-4279-b1bf-c6b3727279d0,de,Lussy-sur-Morges,1167,5640,VD,VD02,6.444645,46.49606
0acd2b81-aa0f-4ae4-8d2b-81aa0f2ae4cd,de,Villars-sous-Yens,1168,5652,VD,VD02,6.426473,46.506377
aaa97727-9f33-45ef-a977-279f33d5efcd,de,Yens,1169,5655,VD,VD02,6.409048,46.524228
c77e4569-3f13-4ce9-be45-693f131ce9b8,de,Aubonne,1170,5422,VD,VD04,6.3851212,46.490579
e8c4c395-311f-485a-84c3-95311f985a19,de,Bougy-Villars,1172,5426,VD,VD04,6.348935,46.483594
a987a565-af48-4c4a-87a5-65af486c4a91,de,Féchy,1173,5427,VD,VD04,6.3726881,46.478812
2be27ba4-1360-4398-a27b-a41360a39842,de,Montherod,1174,5432,VD,VD04,6.345857,46.491894
9ffc2552-76e0-4d17-bc25-5276e04d17b0,de,Pizy,1174,5422,VD,VD04,6.345857,46.491894
b0b7571a-5fb3-49a4-b757-1a5fb309a480,de,Lavigny,1175,5637,VD,VD02,6.403955,46.499284
57d0bdc3-d97c-45f0-90bd-c3d97cd5f010,de,St-Livres,1176,5435,VD,VD04,6.381852,46.516695
9e3fd118-c26f-4603-bfd1-18c26f360379,de,Rolle,1180,5861,VD,VD04,6.3315555,46.457574
a62f87c7-d397-482f-af87-c7d397f82f0c,de,Tartegnin,1180,5862,VD,VD04,6.3315555,46.457574
489652ff-2f60-458e-9652-ff2f60f58e4d,de,Gilly,1182,5857,VD,VD04,6.300124,46.457345
6754689f-1b59-4c1d-9468-9f1b59fc1d9d,de,Bursins,1183,5853,VD,VD04,6.2862309,46.452031
cf790121-1db4-4ffe-b901-211db4fffee0,de,Luins,1184,5858,VD,VD04,6.269118,46.439446
235e8d5d-578f-4f6f-9e8d-5d578f6f6f82,de,Vinzel,1184,5863,VD,VD04,6.269118,46.439446
2ef6d0a2-f945-405f-b6d0-a2f945c05f39,de,Mont-sur-Rolle,1185,5859,VD,VD04,6.336313,46.475361
ac04b751-03b2-414d-84b7-5103b2814d66,de,Essertines-sur-Rolle,1186,5856,VD,VD04,null,null
2584bc17-7312-418d-84bc-177312a18d70,de,St-Oyens,1187,5436,VD,VD04,6.299171,46.494458
352c6084-31df-400f-ac60-8431df200fb9,de,Gimel,1188,5428,VD,VD04,6.2893698,46.526681
61738974-ddcb-437b-b389-74ddcbe37b26,de,St-George,1188,5434,VD,VD04,6.2893698,46.526681
a3d9601f-ac68-4334-9960-1fac68f33455,de,Saubraz,1189,5437,VD,VD04,6.324991,46.515617
d7607d47-46e0-4b3a-a07d-4746e0db3a31,de,Bursinel,1195,5852,VD,VD04,6.289946,46.431822
dcb51bee-632c-4c29-b51b-ee632c4c29dd,de,Dully,1195,5855,VD,VD04,6.289946,46.431822
dcd36992-d205-4728-9369-92d2054728e9,de,Dully-Bursinel,1195,5852,VD,VD04,null,null
59d1cd0d-4157-4df2-91cd-0d4157adf2a7,de,Gland,1196,5721,VD,VD04,6.2729116,46.41975
2c1ab810-9f28-497d-9ab8-109f28197dfc,de,Prangins,1197,5725,VD,VD04,6.2551076,46.400709
287768c6-39a6-4c86-b768-c639a6cc8671,de,Genf,1200,6621,GE,GE01,6.1413935,46.205774
ba2ab661-1c3c-4176-aab6-611c3c817616,fr,Genève,1200,6621,GE,GE01,6.1413935,46.205774
22d62428-3bd7-41c6-9624-283bd711c6e5,it,Ginevra,1200,6621,GE,GE01,6.1413935,46.205774
4e4e1bcf-f086-42ae-8e1b-cff08682aeac,de,Genf,1201,6621,GE,GE01,6.1413935,46.205774
d107ded3-1047-4439-87de-d31047e43930,fr,Genève,1201,6621,GE,GE01,6.1413935,46.205774
64189646-8049-4467-9896-46804994679b,it,Ginevra,1201,6621,GE,GE01,6.1413935,46.205774
eb229d8c-8e57-4b54-a29d-8c8e570b5475,de,Genf,1202,6621,GE,GE01,6.1413935,46.205774
2f9ea3cb-3bab-47b3-9ea3-cb3bab07b385,fr,Genève,1202,6621,GE,GE01,6.1413935,46.205774
11dee030-cbf2-4990-9ee0-30cbf2099066,it,Ginevra,1202,6621,GE,GE01,6.1413935,46.205774
dd77de44-ea9e-40a5-b7de-44ea9e90a5ea,de,Genf,1203,6621,GE,GE01,6.1413935,46.205774
507b29ce-5420-45c4-bb29-ce5420a5c40a,fr,Genève,1203,6621,GE,GE01,6.1413935,46.205774
5c2f6d58-813a-47d0-af6d-58813ae7d042,it,Ginevra,1203,6621,GE,GE01,6.1413935,46.205774
1e228427-e3d6-4bb8-a284-27e3d6ebb81d,de,Genf,1204,6621,GE,GE01,6.1413935,46.205774
7bbbfbc5-b86a-4a7c-bbfb-c5b86a0a7cd8,fr,Genève,1204,6621,GE,GE01,6.1413935,46.205774
a215c43f-55fe-45d8-95c4-3f55fe55d86b,it,Ginevra,1204,6621,GE,GE01,6.1413935,46.205774
385b16f6-2502-4b1b-9b16-f62502fb1b11,de,Genf,1205,6621,GE,GE01,6.1413935,46.205774
eafe2281-4a20-48fa-be22-814a2098facf,fr,Genève,1205,6621,GE,GE01,6.1413935,46.205774
a5213146-6345-4a4a-a131-4663455a4af9,it,Ginevra,1205,6621,GE,GE01,6.1413935,46.205774
f0308050-66d5-4c12-b080-5066d5ac124f,de,Genf,1206,6621,GE,GE01,6.142701,46.208358
2695c868-23ea-49ce-95c8-6823eab9ce2a,fr,Genève,1206,6621,GE,GE01,6.142701,46.208358
f99318ee-fa88-4324-9318-eefa88e324fe,it,Ginevra,1206,6621,GE,GE01,6.142701,46.208358
87437b29-1122-490d-837b-291122090d7a,de,Genf,1207,6621,GE,GE01,6.1413935,46.205774
9dd76998-487a-45d3-9769-98487a85d322,fr,Genève,1207,6621,GE,GE01,6.1413935,46.205774
5080588c-c755-471d-8058-8cc755371d51,it,Ginevra,1207,6621,GE,GE01,6.1413935,46.205774
23bdf71d-c845-4f5d-bdf7-1dc845df5df5,de,Genf,1208,6621,GE,GE01,6.142701,46.208358
67749fd8-ec7d-4b60-b49f-d8ec7d0b60d9,fr,Genève,1208,6621,GE,GE01,6.142701,46.208358
2d79e7ca-22e0-4134-b9e7-ca22e0c134e7,it,Ginevra,1208,6621,GE,GE01,6.142701,46.208358
0a1aeb4f-b652-4d09-9aeb-4fb6524d0954,de,Genf,1209,6621,GE,GE01,6.1413935,46.205774
e0e4ace7-9d60-4d46-a4ac-e79d602d4666,fr,Genève,1209,6621,GE,GE01,6.1413935,46.205774
2a663163-6d75-468f-a631-636d75368f45,it,Ginevra,1209,6621,GE,GE01,6.1413935,46.205774
97d4b6e8-3122-4f19-94b6-e83122ef1991,de,Genf 1,1211,6621,GE,GE01,null,null
83ef1ce7-2681-452f-af1c-e72681452f4b,de,Genf 10,1211,6621,GE,GE01,null,null
240d3cc2-9f0b-48d6-8d3c-c29f0b38d63e,de,Genf 11,1211,6621,GE,GE01,null,null
6b0d2f7b-5289-4e7f-8d2f-7b5289be7f15,de,Genf 12,1211,6621,GE,GE01,null,null
2628e57a-9fc5-4fce-a8e5-7a9fc5afced1,de,Genf 13,1211,6621,GE,GE01,null,null
11d46c9c-095c-4d3f-946c-9c095cfd3f40,de,Genf 19,1211,6621,GE,GE01,null,null
58fffb4a-c934-4009-bffb-4ac93490097c,de,Genf 2,1211,6621,GE,GE01,null,null
89088a54-5680-491d-888a-545680d91d2a,de,Genf 20,1211,6621,GE,GE01,null,null
7878b85c-d4b7-403e-b8b8-5cd4b7203e76,de,Genf 22,1211,6621,GE,GE01,null,null
2fc200f3-a50e-4032-8200-f3a50ed0320c,de,Genf 23,1211,6630,GE,GE01,null,null
9568e9e2-3435-4e40-a8e9-e234350e40ea,de,Genf 26,1211,6628,GE,GE01,null,null
15594041-15a4-45c1-9940-4115a445c1de,de,Genf 27,1211,6634,GE,GE01,null,null
b004fb8e-95fe-4d01-84fb-8e95fecd013b,de,Genf 28,1211,6621,GE,GE01,null,null
f9ff5015-73d6-4cda-bf50-1573d60cdac2,de,Genf 3,1211,6621,GE,GE01,null,null
4bea3f4f-f36a-484a-aa3f-4ff36af84abf,de,Genf 4,1211,6621,GE,GE01,null,null
e60dd787-7653-4de6-8dd7-8776530de699,de,Genf 6,1211,6621,GE,GE01,null,null
f121573e-78c0-413f-a157-3e78c0a13f09,de,Genf 8,1211,6621,GE,GE01,null,null
288b8326-0bc7-42dd-8b83-260bc742dd1e,fr,Genève 1,1211,6621,GE,GE01,null,null
6554b933-6abc-4f4f-94b9-336abcff4f03,fr,Genève 10,1211,6621,GE,GE01,null,null
80486590-78d4-484a-8865-9078d4b84a08,fr,Genève 11,1211,6621,GE,GE01,null,null
0699bad7-7c1b-4e95-99ba-d77c1b5e952f,fr,Genève 12,1211,6621,GE,GE01,null,null
f59f43a7-722f-4fed-9f43-a7722f0fed91,fr,Genève 13,1211,6621,GE,GE01,null,null
7a955b0b-878c-491a-955b-0b878c691add,de,Genève 14,1211,6621,GE,GE01,null,null
25f0df68-e31a-4b96-b0df-68e31a9b963d,fr,Genève 19,1211,6621,GE,GE01,null,null
e2244e1a-b66b-481f-a44e-1ab66b181f0c,fr,Genève 2,1211,6621,GE,GE01,null,null
b8765aaf-c6d0-4ecb-b65a-afc6d0cecbda,fr,Genève 20,1211,6621,GE,GE01,null,null
53a6a17c-d804-4113-a6a1-7cd804211316,fr,Genève 22,1211,6621,GE,GE01,null,null
b92397b4-e6d6-4d75-a397-b4e6d6ad7539,fr,Genève 23,1211,6630,GE,GE01,null,null
76a5d949-2853-4ba5-a5d9-4928530ba570,fr,Genève 26,1211,6628,GE,GE01,null,null
accd23f6-6006-4966-8d23-f6600679668f,fr,Genève 27,1211,6634,GE,GE01,null,null
5996c6f7-93e0-458f-96c6-f793e0758fd4,fr,Genève 28,1211,6621,GE,GE01,null,null
5f2b453f-18c9-4954-ab45-3f18c9b954f1,fr,Genève 3,1211,6621,GE,GE01,null,null
cc73e915-1f5a-4d23-b3e9-151f5a4d2343,fr,Genève 4,1211,6621,GE,GE01,null,null
11c45355-fb45-43f8-8453-55fb4573f84c,de,Genève 5,1211,6623,GE,GE01,null,null
eff588b8-a77b-459e-b588-b8a77b959e66,fr,Genève 6,1211,6621,GE,GE01,null,null
d7f9c624-343b-43c6-b9c6-24343bb3c6ec,de,Genève 70,1211,6621,GE,GE01,null,null
22c78b3f-fa2b-4567-878b-3ffa2b256775,de,Genève 71 CS CP,1211,6621,GE,GE01,null,null
ba12a859-6edd-47ba-92a8-596edd07ba39,de,Genève 73,1211,6621,GE,GE01,null,null
9f97d884-1723-4911-97d8-84172309114b,fr,Genève 8,1211,6621,GE,GE01,null,null
5fd0eb43-9510-4a63-90eb-4395106a6399,de,Genève 84 Votations,1211,6621,GE,GE01,null,null
f18c42d3-2eab-4c50-8c42-d32eab5c50d0,it,Ginevra 1,1211,6621,GE,GE01,null,null
62c026ae-179b-437a-8026-ae179be37a52,it,Ginevra 10,1211,6621,GE,GE01,null,null
6a81acf1-a6c6-48e2-81ac-f1a6c6c8e27c,it,Ginevra 11,1211,6621,GE,GE01,null,null
ebcbb4f7-9ee9-4e81-8bb4-f79ee9be81cc,it,Ginevra 12,1211,6621,GE,GE01,null,null
f857b5aa-365f-46b8-97b5-aa365f06b8ac,it,Ginevra 13,1211,6621,GE,GE01,null,null
7fe89927-4243-4a1c-a899-2742431a1cb6,it,Ginevra 19,1211,6621,GE,GE01,null,null
494dffa0-7c2d-4afc-8dff-a07c2d4afc6d,it,Ginevra 2,1211,6621,GE,GE01,null,null
c2b09116-924f-4331-b091-16924f6331cc,it,Ginevra 20,1211,6621,GE,GE01,null,null
24bd3cd5-1196-4f2c-bd3c-d511962f2c01,it,Ginevra 22,1211,6621,GE,GE01,null,null
13a62325-71bf-40f1-a623-2571bfc0f1b0,it,Ginevra 23,1211,6630,GE,GE01,null,null
783f0c40-5d77-441d-bf0c-405d77741d7c,it,Ginevra 26,1211,6628,GE,GE01,null,null
8bf2f1a3-b2e4-4ac8-b2f1-a3b2e43ac847,it,Ginevra 27,1211,6634,GE,GE01,null,null
69e9d7d1-34c6-4f52-a9d7-d134c6bf52c2,it,Ginevra 28,1211,6621,GE,GE01,null,null
b9a4a9f3-468e-415f-a4a9-f3468e415ffc,it,Ginevra 3,1211,6621,GE,GE01,null,null
8e93499a-b7a6-4911-9349-9ab7a6d9119d,it,Ginevra 4,1211,6621,GE,GE01,null,null
b52aac48-8755-4bbd-aaac-488755ebbd0c,it,Ginevra 6,1211,6621,GE,GE01,null,null
e7a26237-6f4a-44ef-a262-376f4ad4ef7e,it,Ginevra 8,1211,6621,GE,GE01,null,null
6425b4f6-4186-4e51-a5b4-f641860e5135,de,Grand-Lancy,1212,6628,GE,GE01,6.1205,46.182809
d777f57a-c917-4fad-b7f5-7ac9177fade7,de,Grand-Lancy 1,1212,6628,GE,GE01,null,null
2ae550a1-724a-4324-a550-a1724ae32434,de,Onex,1213,6631,GE,GE01,6.103622,46.182532
102393a7-0b69-46c5-a393-a70b6986c5ac,de,Petit-Lancy,1213,6628,GE,GE01,6.103622,46.182532
1a67a986-91f3-4b22-a7a9-8691f33b22d9,de,Petit-Lancy 1,1213,6628,GE,GE01,null,null
91c8a1e1-138c-4087-88a1-e1138cf0872e,de,Vernier,1214,6643,GE,GE01,6.0944412,46.210741
3b81ddc0-3fc8-4046-81dd-c03fc8f0461a,de,Genève 15 Aéroport,1215,6630,GE,GE01,null,null
0fc41829-57ca-46db-8418-2957ca46db23,de,Cointrin,1216,6630,GE,GE01,6.1180595,46.210896
35ce96c7-a08a-4777-8e96-c7a08a97776c,de,Meyrin,1217,6630,GE,GE01,6.0788728,46.232237
7a38d26d-d728-42b4-b8d2-6dd72862b40c,de,Meyrin 1,1217,6630,GE,GE01,null,null
4762355a-2bd8-4c1f-a235-5a2bd87c1fb7,de,Le Grand-Saconnex,1218,6623,GE,GE01,6.1189767,46.23578
aaddd3ff-4383-44d5-9dd3-ff4383d4d570,de,Aïre,1219,6643,GE,GE01,6.1218787,46.191968
26e21a01-d29e-4a46-a21a-01d29e5a4623,de,Châtelaine,1219,6643,GE,GE01,6.1218787,46.191968
1c22b9d5-c245-447e-a2b9-d5c245847e80,de,Le Lignon,1219,6643,GE,GE01,6.1218787,46.191968
0c2d1f31-01ed-489b-ad1f-3101ed389b63,de,Les Avanchets,1220,6643,GE,GE01,6.107849,46.221174
0d02698e-ca2d-478c-8269-8eca2d178c00,de,Vésenaz,1222,6616,GE,GE01,6.1996072,46.2314
e6ac4124-4e04-42ad-ac41-244e0412ad48,de,Cologny,1223,6617,GE,GE01,6.1852833,46.21765
373e1b0f-56be-4556-be1b-0f56be455677,de,Chêne-Bougeries,1224,6612,GE,GE01,6.1815026,46.19356
6ff3d803-b03e-467e-b3d8-03b03ed67e9c,de,Chêne-Bourg,1225,6613,GE,GE01,6.1968239,46.197391
ba5dbe55-93a2-40c2-9dbe-5593a220c255,de,Thônex,1226,6640,GE,GE01,6.2044216,46.196071
563fe6f7-8abe-4264-bfe6-f78abe7264b0,de,Carouge GE,1227,6608,GE,GE01,6.145072,46.180452
53afb77a-fb87-44e3-afb7-7afb87c4e332,de,Les Acacias,1227,6608,GE,GE01,6.145072,46.180452
0808f51f-2666-4124-88f5-1f26663124f8,de,Plan-les-Ouates,1228,6633,GE,GE01,6.1188431,46.163948
a9faf585-594e-4d0d-baf5-85594efd0def,de,Conches,1231,6612,GE,GE01,6.17799,46.188855
74d52df4-2414-412b-952d-f42414912ba1,de,Confignon,1232,6618,GE,GE01,6.0887889,46.174236
07cf00e5-7697-4412-8f00-e57697741201,de,Bernex,1233,6607,GE,GE01,6.0681505,46.178468
24d1f6f4-b700-4c41-91f6-f4b7003c416c,de,Vessy,1234,6645,GE,GE01,6.15828,46.171975
7658d386-0164-4e3a-98d3-860164ae3a41,de,Cartigny,1236,6609,GE,GE01,6.02879,46.177062
7485947d-f819-4cec-8594-7df8192cec8b,de,Avully,1237,6603,GE,GE01,5.9982284,46.167486
0965fd7a-54a9-420a-a5fd-7a54a9620adf,de,Collex,1239,6615,GE,GE01,6.117638,46.275893
357e562f-d660-4ad9-be56-2fd660dad9e8,de,Genève,1240,6621,GE,GE01,null,null
713a8533-1d56-4c62-ba85-331d56ac6269,de,Puplinge,1241,6636,GE,GE01,6.2319862,46.210826
eaf6694b-0411-42ac-b669-4b041152ac02,de,Satigny,1242,6638,GE,GE01,6.036565,46.214078
48ea059d-3f1a-4ebd-aa05-9d3f1acebd76,de,Presinge,1243,6635,GE,GE01,6.259671,46.218979
09fcc2cb-ca99-4a40-bcc2-cbca99ea408e,de,Choulex,1244,6614,GE,GE01,6.221099,46.226117
4f10678c-90ed-4850-9067-8c90ed28505e,de,Collonge-Bellerive,1245,6616,GE,GE01,5.937532,46.249268
95a1bc90-1c7f-4bce-a1bc-901c7f8bce4e,de,Corsier GE,1246,6619,GE,GE01,6.213982,46.261396
f410e885-8079-47b7-90e8-85807957b70b,de,Anières,1247,6602,GE,GE01,6.2330515,46.274695
48dc802a-bbf7-4ca5-9c80-2abbf7eca581,de,Hermance,1248,6625,GE,GE01,6.2445547,46.293566
8073df31-c602-4c53-b3df-31c6021c53e9,de,Gy,1251,6624,GE,GE01,6.267874,46.245581
04e57075-27f6-4a06-a570-7527f6da0646,de,Meinier,1252,6629,GE,GE01,6.2349258,46.243011
5219ba74-2fdf-42bd-99ba-742fdf62bd0a,de,Vandoeuvres,1253,6642,GE,GE01,6.2034941,46.218975
792640d9-2c62-427a-a640-d92c62727af2,de,Jussy,1254,6626,GE,GE01,6.278012,46.23967
5e9f86cd-c993-422a-9f86-cdc993922a85,de,Veyrier,1255,6645,GE,GE01,6.1666652,46.171631
fd8bf4b9-7a1f-4efe-8bf4-b97a1fcefe55,de,Troinex,1256,6641,GE,GE01,6.1508494,46.158838
c06e9cf3-406f-4786-ae9c-f3406fa786c2,de,La Croix-de-Rozon,1257,6605,GE,GE01,6.113698,46.143149
2105c061-1d28-4c1d-85c0-611d283c1d97,de,Perly,1258,6632,GE,GE01,6.084668,46.155963
2535a623-b394-4da3-b5a6-23b3945da3d3,de,Nyon,1260,5724,VD,VD04,6.2262374,46.386352
3e8aaa83-b76d-48f4-8aaa-83b76d18f4dc,de,Nyon 1,1260,5724,VD,VD04,null,null
3f87180f-8d63-4445-8718-0f8d6324459c,de,Nyon 2,1260,5724,VD,VD04,null,null
1fb0fef4-1b46-498e-b0fe-f41b46998e7d,de,Le Vaud,1261,5731,VD,VD04,6.2259536,46.498096
28a0cdea-8f6e-452d-a0cd-ea8f6e652d2a,de,Longirod,1261,5429,VD,VD04,6.2259536,46.498096
442e0fd3-e182-4d76-ae0f-d3e182bd767e,de,Marchissy,1261,5430,VD,VD04,6.2259536,46.498096
25308a6b-0e4a-44ad-b08a-6b0e4a54ad89,de,Eysins,1262,5716,VD,VD04,6.203942,46.381487
d0bfabbb-1341-46b4-bfab-bb1341c6b49d,de,Crassier,1263,5714,VD,VD04,6.167521,46.372818
79adcbec-f41b-4971-adcb-ecf41b097153,de,St-Cergue,1264,5727,VD,VD04,6.128801,46.449549
d03498ea-2e4a-483c-b498-ea2e4a583c41,de,La Cure,1265,5727,VD,VD04,6.0889948,46.466839
418585f4-147c-44d3-8585-f4147c94d3f0,de,Duillier,1266,5715,VD,VD04,6.228512,46.409134
ea2feb40-5c7e-4c10-afeb-405c7e4c1025,de,Coinsins,1267,5710,VD,VD04,6.236938,46.419989
1a5e6bfe-fee8-49b1-9e6b-fefee839b1bb,de,Vich,1267,5732,VD,VD04,6.236938,46.419989
6c282c5f-42a9-4c03-a82c-5f42a9ec03e9,de,Vich-Coinsins,1267,5732,VD,VD04,null,null
00731edc-c5e5-4786-b31e-dcc5e59786eb,de,Begnins,1268,5704,VD,VD04,6.2651622,46.471536
a2517495-d5ca-4a76-9174-95d5ca7a76da,de,Burtigny,1268,5854,VD,VD04,6.2651622,46.471536
3c2b5645-ba8b-4192-ab56-45ba8bd192de,de,Bassins,1269,5703,VD,VD04,6.199102,46.489365
296a4a03-d54a-4af0-aa4a-03d54aeaf091,de,Trélex,1270,5730,VD,VD04,6.1965372,46.418904
50cd0cf4-e414-4aad-8d0c-f4e4148aadb7,de,Givrins,1271,5720,VD,VD04,6.199702,46.429028
6d51585f-b870-462b-9158-5fb870062b39,de,Genolier,1272,5718,VD,VD04,6.2202478,46.436273
86a5c57c-157d-40b4-a5c5-7c157d70b4aa,de,Arzier-Le Muids,1273,5702,VD,VD04,6.178289,46.486374
ec04d211-7402-4319-84d2-11740203192b,de,Grens,1274,5722,VD,VD04,6.1915304,46.396556
7b83125c-e374-4894-8312-5ce374489471,de,Signy,1274,5728,VD,VD04,6.1915304,46.396556
1d231cbe-75cd-4183-a31c-be75cd718332,de,Signy-Centre,1274,5728,VD,VD04,null,null
efb8d3cb-81fe-4707-b8d3-cb81fee707ca,de,Chéserex,1275,5709,VD,VD04,6.147611,46.408585
26fa26ac-ab8b-4ad2-ba26-acab8b1ad2bb,de,Gingins,1276,5719,VD,VD04,6.1379625,46.426256
063fdb67-8b94-45cf-bfdb-678b94d5cf72,de,Arnex-sur-Nyon,1277,5701,VD,VD04,6.1790512,46.380997
11917068-fecc-460b-9170-68fecc360bcc,de,Borex,1277,5706,VD,VD04,6.1790512,46.380997
7cf575b2-1219-4303-b575-b2121963037f,de,La Rippe,1278,5726,VD,VD04,6.120058,46.390237
1d0afb4c-65ab-4ba1-8afb-4c65abeba13b,de,Bogis-Bossey,1279,5705,VD,VD04,6.1543048,46.340063
fcf2ee7e-b040-4216-b2ee-7eb0409216da,de,Chavannes-de-Bogis,1279,5707,VD,VD04,6.1543048,46.340063
f150b28e-012e-4f7c-90b2-8e012eff7c4a,de,Russin,1281,6637,GE,GE01,6.013753,46.193173
538b07d3-14e3-42a0-8b07-d314e312a02a,de,Dardagny,1283,6620,GE,GE01,5.988675,46.198632
93d8df12-1be2-4489-98df-121be27489e4,de,La Plaine,1283,6620,GE,GE01,5.988675,46.198632
eced77ae-afe4-42bd-ad77-aeafe4c2bd7e,de,Chancy,1284,6611,GE,GE01,5.979862,46.148131
cf86d9bd-f1b3-4669-86d9-bdf1b30669be,de,Athenaz (Avusy),1285,6604,GE,GE01,5.999065,46.148537
1a2f4986-a25b-43a8-af49-86a25bb3a898,de,Soral,1286,6639,GE,GE01,6.04707,46.147695
b6485f05-6f06-4676-885f-056f06367659,de,Laconnex,1287,6627,GE,GE01,6.033322,46.154745
2ce89280-df5d-4d16-a892-80df5d8d1637,de,Aire-la-Ville,1288,6601,GE,GE01,6.041955,46.186249
b24b4a78-51a7-49f5-8b4a-7851a739f53f,de,Chavannes-des-Bois,1290,5708,VD,VD04,6.1454077,46.29146
2f4bc9a0-fd98-48b7-8bc9-a0fd9858b724,de,Versoix,1290,6644,GE,GE01,6.1454077,46.29146
86a476a6-5bb1-43d8-a476-a65bb173d8b9,de,Commugny,1291,5711,VD,VD04,6.163428,46.320059
12e6d320-8f3f-4079-a6d3-208f3f4079bf,de,Chambésy,1292,6634,GE,GE01,6.138445,46.238909
a6940a62-dc82-46a7-940a-62dc82d6a7c7,de,Bellevue,1293,6606,GE,GE01,6.1364946,46.257278
823beff3-1e86-4f8e-bbef-f31e869f8e6b,de,Genthod,1294,6622,GE,GE01,6.153847,46.266446
0b5f1f84-2e23-4289-9f1f-842e23f289c7,de,Mies,1295,5723,VD,VD04,6.16047,46.302415
2aa44a58-0e49-4bc3-a44a-580e494bc34f,de,Tannay,1295,5729,VD,VD04,6.16047,46.302415
e683b3e9-883c-435b-83b3-e9883ce35b0c,de,Coppet,1296,5712,VD,VD04,6.188891,46.321368
03d65dd0-5705-4889-965d-d05705488992,de,Founex,1297,5717,VD,VD04,6.1848828,46.336465
b971f90b-e675-4251-b1f9-0be675125116,de,Céligny,1298,6610,GE,GE01,6.190504,46.351672
f02a8685-c742-4981-aa86-85c74279811d,de,Crans-près-Céligny,1299,5713,VD,VD04,6.20516,46.364334
af6131f6-9d28-4cf6-a131-f69d28fcf69b,de,Vufflens-la-Ville,1302,5503,VD,VD02,6.536832,46.574752
2f0d6771-93b8-452d-8d67-7193b8652d7f,de,Penthaz,1303,5496,VD,VD02,6.541284,46.598757
4d3c6f8a-cd04-45e3-bc6f-8acd04d5e3c8,de,Allens,1304,5477,VD,VD02,6.4846647,46.599179
f2953474-eb2f-42e2-9534-74eb2f32e27f,de,Cossonay-Ville,1304,5477,VD,VD02,6.4846647,46.599179
a9ee872b-8997-470f-ae87-2b8997970f20,de,Dizy,1304,5481,VD,VD02,6.4846647,46.599179
4ebf007b-535f-4407-bf00-7b535f54073c,de,Senarclens,1304,5499,VD,VD02,6.4846647,46.599179
157b2a76-5ef9-4205-bb2a-765ef9220572,de,Penthalaz,1305,5495,VD,VD02,6.5290532,46.612775
42bd907b-25f0-4ddc-bd90-7b25f09ddcaa,de,Daillens,1306,5480,VD,VD02,6.549613,46.628558
32a77282-4eb0-4ab5-a772-824eb0cab584,de,Lussery-Villars,1307,5487,VD,VD02,7.163295,46.346778
21322f2f-d997-4257-b22f-2fd997925737,de,La Chaux (Cossonay),1308,5474,VD,VD02,null,null
95437cb6-14fa-4171-837c-b614fae17173,de,Eclépens,1312,5482,VD,VD02,6.5428806,46.651478
85146368-cb19-4724-9463-68cb19272404,de,Ferreyres,1313,5483,VD,VD02,6.478313,46.654285
6e5d1f9c-583b-40dd-9d1f-9c583b70dd5f,de,La Sarraz,1315,5498,VD,VD02,6.5047545,46.654501
e298b186-1cf4-468f-98b1-861cf4168f91,de,Chevilly,1316,5476,VD,VD02,6.471855,46.641831
46e87166-9adb-418c-a871-669adb218c36,de,Orny,1317,5493,VD,VD02,6.53565,46.66729
ccc5f0e6-e34d-4cb9-85f0-e6e34d2cb9ee,de,Pompaples,1318,5497,VD,VD02,6.516883,46.672777
f278f5f2-96f8-4e67-b8f5-f296f83e6762,de,Arnex-sur-Orbe,1321,5743,VD,VD03,6.515581,46.684973
99895c57-b247-4199-895c-57b24791992a,de,Croy,1322,5752,VD,VD03,6.48278,46.685152
9eac2397-3e83-4d8d-ac23-973e83cd8de7,de,Romainmôtier,1323,5761,VD,VD03,6.461046,46.684682
d65caea9-bfd0-47e1-9cae-a9bfd037e17e,de,Premier,1324,5759,VD,VD03,6.441932,46.708039
76a6f65c-8914-4c9b-a6f6-5c89141c9bed,de,Vaulion,1325,5765,VD,VD03,6.384448,46.687029
10fea052-f071-400a-bea0-52f071e00aa7,de,Juriens,1326,5754,VD,VD03,6.431743,46.68108
ef416c0a-6a88-4a63-816c-0a6a884a630e,de,Bretonnières,1329,5748,VD,VD03,6.470298,46.715272
a471d4c2-313c-41b6-b1d4-c2313c71b657,de,Vallorbe,1337,5764,VD,VD03,6.3713975,46.707857
c71f2fd2-51f3-4a09-9f2f-d251f36a09ab,de,Ballaigues,1338,5744,VD,VD03,6.4102941,46.734906
e4424d57-cb70-462c-824d-57cb70f62c7b,de,Orient,1341,5872,VD,VD04,6.237835,46.60108
03ec6104-70cf-4888-ac61-0470cfe88805,de,Le Pont,1342,5871,VD,VD04,6.3097397,46.667344
3a108b47-5a75-46a4-908b-475a75e6a434,de,Les Charbonnières,1343,5873,VD,VD04,6.3180559,46.666869
f105d88e-54be-4e44-85d8-8e54beae4468,de,L'Abbaye,1344,5871,VD,VD04,6.311316,46.63614
9e95e087-c460-4e9b-95e0-87c4602e9b76,de,Le Lieu,1345,5873,VD,VD04,6.279332,46.66169
01582970-88c1-4fb3-9829-7088c17fb39e,de,Le Séchey,1345,5873,VD,VD04,6.279332,46.66169
4843f58d-1b95-4bdc-83f5-8d1b955bdc27,de,Les Bioux,1346,5871,VD,VD04,6.259954,46.615355
8755ac25-ecbb-48d3-95ac-25ecbb18d337,de,Le Sentier,1347,5872,VD,VD04,6.2334315,46.620172
8db172f5-f69e-4742-b172-f5f69e674213,de,Le Solliat,1347,5872,VD,VD04,6.2334315,46.620172
fc83faaf-a3e9-42b3-83fa-afa3e912b399,de,Le Brassus,1348,5872,VD,VD04,6.2186611,46.582205
a50a1a38-e0c7-4b9c-8a1a-38e0c7db9cf8,de,Orbe,1350,5757,VD,VD03,6.5430424,46.727011
953d8e90-9e08-4318-bd8e-909e0843181d,de,Agiez,1352,5742,VD,VD03,6.508968,46.71808
39cb8b96-a3b8-4290-8b8b-96a3b8229017,de,Bofflens,1353,5747,VD,VD03,6.49527,46.701731
e1b9f57c-c3e6-45b1-b9f5-7cc3e645b105,de,Montcherand,1354,5756,VD,VD03,6.512095,46.733962
dffbe295-f775-48a8-bbe2-95f77578a8a3,de,L'Abergement,1355,5741,VD,VD03,6.498658,46.750606
97a9efa2-8061-4feb-a9ef-a28061cfeb94,de,Sergey,1355,5762,VD,VD03,6.498658,46.750606
7bdc4c40-5505-4ced-9c4c-4055054cedb3,de,La Russille,1356,5750,VD,VD03,6.471261,46.732951
73604768-55c6-4617-a047-6855c676170d,de,Les Clées,1356,5750,VD,VD03,6.471261,46.732951
d88b9a47-878c-4369-8b9a-47878c23698b,de,Lignerolle,1357,5755,VD,VD03,6.447387,46.746825
22f5e9b7-ca2c-47e4-b5e9-b7ca2c77e455,de,Valeyres-sous-Rances,1358,5763,VD,VD03,null,null
1861138a-ea44-4182-a113-8aea44e182bd,de,Bavois,1372,5746,VD,VD03,6.566261,46.681193
dfbe607f-4f0f-457f-be60-7f4f0fa57f19,de,Chavornay,1373,5749,VD,VD03,6.5689378,46.706547
9c02c4f5-8f38-4437-82c4-f58f387437dc,de,Corcelles-sur-Chavornay,1374,5749,VD,VD03,null,null
69d7279b-56fa-41ff-9727-9b56faa1fff7,de,Penthéréaz,1375,5531,VD,VD02,6.605868,46.678332
61c68a2a-9d1f-4278-868a-2a9d1fd2787c,de,Eclagnens,1376,5541,VD,VD02,6.59021,46.646263
f96e6847-9937-4243-ae68-479937024385,de,Goumoens-la-Ville,1376,5541,VD,VD02,6.59021,46.646263
56453a6c-7ba2-41e9-853a-6c7ba2f1e934,de,Goumoens-le-Jux,1376,5541,VD,VD02,6.59021,46.646263
30bd5eb5-aeba-4412-bd5e-b5aeba741255,de,Oulens-sous-Echallens,1377,5529,VD,VD02,null,null
0bf85e8e-b7f0-49f5-b85e-8eb7f0a9f540,de,Cheseaux-Noréaz,1400,5909,VD,VD03,6.6371073,46.774273
3b9576dc-67d3-42d6-9576-dc67d3d2d658,de,Yverdon 2,1400,5938,VD,VD03,null,null
dbc0f29b-1ae9-43d5-80f2-9b1ae983d5b4,de,Yverdon-les-Bains,1400,5938,VD,VD03,6.6371073,46.774273
1e49800e-3637-4a3c-8980-0e3637ca3c33,de,Yverdon-les-Bains,1401,5938,VD,VD03,null,null
d16e35e1-523f-4e0d-ae35-e1523f2e0d4f,de,Cuarny,1404,5911,VD,VD03,6.691131,46.77044
a7b23312-fcdf-4993-b233-12fcdfd993e5,de,Villars-Epeney,1404,5935,VD,VD03,6.691131,46.77044
e57cd0e3-1853-4cde-bcd0-e31853ecde84,de,Pomy,1405,5926,VD,VD03,6.66845,46.755703
94bf0929-8a82-4cc3-bf09-298a829cc367,de,Cronay,1406,5910,VD,VD03,6.699215,46.754431
ffa7fc87-a64a-4d0e-a7fc-87a64add0e71,de,Bioley-Magnoux,1407,5903,VD,VD03,6.7146267,46.726582
4edeff53-e055-48d8-9eff-53e055b8d832,de,Donneloye,1407,5913,VD,VD03,6.7146267,46.726582
8c235546-f876-4cbb-a355-46f8765cbbc8,de,Gossens,1407,5913,VD,VD03,6.7146267,46.726582
9361c45a-51bf-41e0-a1c4-5a51bfd1e075,de,Mézery-près-Donneloye,1407,5913,VD,VD03,null,null
0b34e557-7977-495b-b4e5-577977495b40,de,Prahins,1408,5913,VD,VD03,6.732908,46.734973
f5e42e60-919f-4596-a42e-60919f259664,de,Chanéaz,1409,5693,VD,VD03,6.744256,46.727376
30fca03c-1f0e-4f8a-bca0-3c1f0eef8aeb,de,Correvon,1410,5693,VD,VD03,6.7589235,46.703852
0a5bd523-4747-45d7-9bd5-234747a5d7eb,de,Denezy,1410,5693,VD,VD03,6.7589235,46.703852
078ec4c3-b802-4f81-8ec4-c3b802df8122,de,Prévondavaux,1410,2038,fr,FR01,6.7589235,46.703852
f8575ce3-b56d-4971-975c-e3b56d397111,de,St-Cierges,1410,5693,VD,VD03,6.7589235,46.703852
90590105-5338-4cbe-9901-055338ccbe6c,de,Thierrens,1410,5693,VD,VD03,6.7589235,46.703852
afd7b788-e25f-4904-97b7-88e25f7904b8,de,Ursins,1412,5932,VD,VD03,6.665983,46.734547
2e51d00b-d5f8-46ce-91d0-0bd5f886ce13,de,Valeyres-sous-Ursins,1412,5934,VD,VD03,null,null
8f633759-76d5-4d22-a337-5976d52d22b0,de,Orzens,1413,5925,VD,VD03,6.695104,46.715111
ff3078e9-e425-4d2d-b078-e9e425bd2d8a,de,Démoret,1415,5912,VD,VD03,6.756717,46.747617
262d66ab-e86c-4c0d-ad66-abe86c7c0dae,de,Molondin,1415,5921,VD,VD03,6.756717,46.747617
a19e9b1f-376c-4842-9e9b-1f376c4842ed,de,Pailly,1416,5530,VD,VD02,6.675571,46.700051
ac4bc22e-2b93-4c40-8bc2-2e2b935c4060,de,Epautheyres,1417,5520,VD,VD02,6.64441,46.714233
934a09e2-aaed-47ae-8a09-e2aaed17ae79,de,Essertines-sur-Yverdon,1417,5520,VD,VD02,null,null
22d78a0a-71ce-472e-978a-0a71ce072e86,de,Vuarrens,1418,5539,VD,VD02,6.645054,46.683532
856e3926-6857-4926-ae39-2668577926cb,de,Fiez,1420,5556,VD,VD03,6.609864,46.830572
4456e09c-0081-4267-96e0-9c008192674d,de,Fontaines-sur-Grandson,1421,5557,VD,VD03,null,null
f185317b-c0a0-4b2e-8531-7bc0a0db2e15,de,Grandevent,1421,5560,VD,VD03,6.592088,46.843028
c70c7789-1a1a-4662-8c77-891a1a366287,de,Grandson,1422,5561,VD,VD03,6.644449,46.814626
0968605f-6f7a-4125-a860-5f6f7a91252a,de,Fontanezier,1423,5571,VD,VD03,6.635012,46.842571
38e4b10a-9778-41e0-a4b1-0a977831e015,de,Romairon,1423,5571,VD,VD03,6.635012,46.842571
9f1ac6cc-1fd9-42eb-9ac6-cc1fd9e2eba5,de,Vaugondry,1423,5571,VD,VD03,6.635012,46.842571
c4cd3fce-8874-41b9-8d3f-ce887461b9bc,de,Villars-Burquin,1423,5571,VD,VD03,6.635012,46.842571
418376dc-003f-43da-8376-dc003f43da33,de,Champagne,1424,5553,VD,VD03,6.651905,46.835654
78101fc4-e5f5-4aa6-901f-c4e5f53aa6c1,de,Onnens VD,1425,5565,VD,VD03,6.673165,46.84819
6dfbe929-6545-48b8-bbe9-29654558b8d7,de,Concise,1426,5554,VD,VD03,6.7173821,46.867068
0e49a08f-0ba2-466e-89a0-8f0ba2466e44,de,Corcelles-près-Concise,1426,5555,VD,VD03,null,null
205ec0cd-e5c1-4723-9ec0-cde5c1772317,de,Bonvillars,1427,5551,VD,VD03,6.669699,46.848709
28dc5901-9aa0-4a32-9c59-019aa01a32c9,de,Mutrux,1428,5563,VD,VD03,6.718037,46.880948
d728df7c-6d50-4c5e-a8df-7c6d500c5ebd,de,Provence,1428,5566,VD,VD03,6.718037,46.880948
4a5bad11-9073-4e01-9bad-1190739e0106,de,Giez,1429,5559,VD,VD03,6.609285,46.810857
572ef10f-0f20-422e-aef1-0f0f20922e1c,de,Orges,1430,5924,VD,VD03,6.583351,46.807656
a8ed710d-6b5c-4c85-ad71-0d6b5cec85dc,de,Novalles,1431,5564,VD,VD03,6.594341,46.831939
41fdf81e-8216-4cbb-bdf8-1e8216bcbbfc,de,Vugelles-La Mothe,1431,5937,VD,VD03,6.594341,46.831939
94679e27-1c0e-4d32-a79e-271c0ebd3273,de,Belmont-sur-Yverdon,1432,5902,VD,VD03,null,null
4fbe6faf-db76-470c-be6f-afdb76570c87,de,Gressy,1432,5938,VD,VD03,6.625156,46.737334
a378cf72-644b-4bf9-b8cf-72644b2bf974,de,Suchy,1433,5929,VD,VD03,6.602005,46.718904
f4f56b0c-2d30-4ab3-b56b-0c2d305ab349,de,Ependes VD,1434,5914,VD,VD03,6.596881,46.742699
408d8116-2b7f-48aa-8d81-162b7f78aa28,de,Essert-Pittet,1435,5749,VD,VD03,6.578744,46.726949
a78a93c7-ee07-4c83-8a93-c7ee075c8388,de,Chamblon,1436,5904,VD,VD03,6.605071,46.769062
a508426c-33d4-47fa-8842-6c33d4a7fa84,de,Treycovagnes,1436,5931,VD,VD03,6.605071,46.769062
9bf8b701-2664-41c6-b8b7-01266461c657,de,Suscévaz,1437,5930,VD,VD03,6.585026,46.76079
6a9278a5-0332-4b97-9278-a50332db973b,de,Mathod,1438,5919,VD,VD03,6.5649669,46.759638
ce175d90-8519-4766-975d-908519b7660b,de,Rances,1439,5760,VD,VD03,6.524146,46.765853
9585911e-a11b-4a4e-8591-1ea11bfa4eb8,de,Montagny-Chamard,1440,5922,VD,VD03,null,null
4ec41ddc-0edc-4c12-841d-dc0edc9c12cb,de,Valeyres-sous-Montagny,1441,5933,VD,VD03,null,null
7031c213-29d4-424b-b1c2-1329d4a24bb9,de,Montagny-près-Yverdon,1442,5922,VD,VD03,null,null
3221b683-ed70-4876-a1b6-83ed70c876d0,de,Champvent,1443,5905,VD,VD03,6.563703,46.783517
9320bffc-85d2-4327-a0bf-fc85d293278c,de,Essert-sous-Champvent,1443,5905,VD,VD03,null,null
6dec29d9-3e0b-48f6-ac29-d93e0b58f66e,de,Villars-sous-Champvent,1443,5905,VD,VD03,null,null
2f50385c-cbd4-4178-9038-5ccbd4b178d0,de,Vuiteboeuf,1445,5766,VD,VD03,6.552492,46.803379
28d835e2-a6bb-4a56-9835-e2a6bb1a5619,de,Baulmes,1446,5745,VD,VD03,6.4994378,46.787672
1af7859c-312c-49ad-b785-9c312cd9adc2,de,La Sagne (Ste-Croix),1450,5568,VD,VD03,null,null
6f8b1904-2660-4ccf-8b19-042660eccfd4,de,Le Château-de-Ste-Croix,1450,5568,VD,VD03,null,null
da009647-27f2-4631-8096-4727f2563101,de,Ste-Croix,1450,5568,VD,VD03,6.50105,46.82421
b570c241-b4d4-48bc-b0c2-41b4d448bc79,de,Les Rasses,1452,5552,VD,VD03,6.538816,46.828968
74efffcf-fa94-424d-afff-cffa94a24dfa,de,Bullet,1453,5552,VD,VD03,6.558819,46.842478
d98ea9e9-5497-465a-8ea9-e95497665a24,de,Mauborget,1453,5562,VD,VD03,6.558819,46.842478
898c5a86-1d08-497f-8c5a-861d08a97f88,de,L'Auberson,1454,5568,VD,VD03,6.482612,46.841718
e1869a5c-6aa2-485c-869a-5c6aa2585cbd,de,La Vraconnaz,1454,5568,VD,VD03,6.482612,46.841718
45528be1-c1e8-4e5b-928b-e1c1e8ae5b1b,de,Yvonand,1462,5939,VD,VD03,6.7360518,46.790352
385d9ceb-ddee-4dfc-9d9c-ebddeecdfcca,de,Rovray,1463,5928,VD,VD03,6.766508,46.785768
1d5b9610-9407-4056-9b96-1094075056ac,de,Chavannes-le-Chêne,1464,5907,VD,VD03,6.768111,46.76694
c9faff86-8d59-4851-baff-868d598851bc,de,Chêne-Pâquier,1464,5908,VD,VD03,6.768111,46.76694
8d0e7c45-b3ca-49ab-8e7c-45b3cab9ab88,de,Cheyres,1468,2055,fr,FR01,6.785646,46.81149
049fe3c1-7981-4c72-9fe3-c17981fc7296,de,Bollion,1470,2025,fr,FR01,6.8566753,46.849645
8a0df139-e4fe-47bd-8df1-39e4fe57bd9c,de,Estavayer-le-Lac,1470,2054,fr,FR01,6.8566753,46.849645
b18709cc-b202-4cd5-8709-ccb202acd530,de,Lully FR,1470,2025,fr,FR01,6.8566753,46.849645
76d79c2f-c85a-412c-979c-2fc85a212c29,de,Seiry,1470,2025,fr,FR01,6.8566753,46.849645
6b985cdf-129e-4d61-985c-df129ecd6150,de,Châtillon FR,1473,2008,fr,FR01,6.822625,46.832977
699557bf-282f-428d-9557-bf282f728db7,de,Font,1473,2054,fr,FR01,6.822625,46.832977
6769217c-bb66-4845-a921-7cbb66e845bc,de,Châbles FR,1474,2055,fr,FR01,6.810073,46.821238
10592f2c-5b88-4d41-992f-2c5b882d4178,de,Autavaux,1475,2054,fr,FR01,6.720421,46.781084
0f40dfc8-e3e1-468c-80df-c8e3e1e68ced,de,Forel FR,1475,2054,fr,FR01,6.720421,46.781084
c41e5849-18c4-47ae-9e58-4918c467aef1,de,Montbrelloz,1475,2054,fr,FR01,6.720421,46.781084
4c09e571-24c3-4c5e-89e5-7124c36c5e22,de,Cugy FR,1482,2011,fr,FR01,6.861591,46.809002
eb747a10-77bd-4194-b47a-1077bde19471,de,Frasses,1483,2050,fr,FR01,6.863445,46.82679
35df1a3e-bf51-419d-9f1a-3ebf51019db0,de,Montet (Broye),1483,2050,fr,FR01,6.863445,46.82679
a5f9f239-237c-4ef9-b9f2-39237c7ef913,de,Vesin,1483,2011,fr,FR01,6.863445,46.82679
c38065fe-d476-4dec-8065-fed4764deca6,de,Aumont,1484,2050,fr,FR01,6.8503169,46.799433
d2974556-19b5-41e4-9745-5619b5f1e408,de,Granges-de-Vesin,1484,2050,fr,FR01,6.8503169,46.799433
e7d4fdbf-2c0a-4a6f-94fd-bf2c0a9a6f70,de,Nuvilly,1485,2035,fr,FR01,6.830705,46.780232
cf7468b6-fb6d-4df5-b468-b6fb6dddf500,de,Vuissens,1486,2054,fr,FR01,6.768336,46.731327
c287f4a6-82d1-43ad-87f4-a682d153ad1b,de,Murist,1489,2054,fr,FR01,6.802546,46.79397
5c42617e-5a8a-4420-8261-7e5a8ad42084,de,Vucherens,1509,5692,VD,VD03,6.775558,46.623673
67bbbca6-d46f-4d8e-bbbc-a6d46f3d8e60,de,Moudon,1510,5678,VD,VD03,6.7781974,46.642901
4d1fc07b-00ee-40db-9fc0-7b00ee50db67,de,Syens,1510,5688,VD,VD03,6.7781974,46.642901
205be2a6-8ea9-481c-9be2-a68ea9881c67,de,Chavannes-sur-Moudon,1512,5665,VD,VD03,null,null
e59821c0-e60f-44d3-9821-c0e60fc4d3e4,de,Hermenches,1513,5673,VD,VD03,6.753961,46.63734
940ca273-2b1c-44b9-8ca2-732b1c24b9b4,de,Rossenges,1513,5684,VD,VD03,6.753961,46.63734
a5eb2f99-8326-4d53-ab2f-9983267d5336,de,Bussy-sur-Moudon,1514,5663,VD,VD03,6.809362,46.689729
b0944ac2-e18a-4218-944a-c2e18aa218c9,de,Neyruz-sur-Moudon,1515,5693,VD,VD03,6.785907,46.696228
84ac4e98-1d28-40b9-ac4e-981d2840b99d,de,Villars-le-Comte,1515,5690,VD,VD03,6.785907,46.696228
2e14947d-c683-4881-9494-7dc683088172,de,Curtilles,1521,5669,VD,VD03,6.843984,46.697767
4e6f4962-ffd5-4a13-af49-62ffd5fa1314,de,Lucens,1522,5675,VD,VD03,6.8142368,46.707559
5fafbbae-85b7-439f-afbb-ae85b7a39f8a,de,Oulens-sur-Lucens,1522,5675,VD,VD03,6.8142368,46.707559
15cac886-68d3-44ea-8ac8-8668d3e4eaa1,de,Granges-près-Marnand,1523,5831,VD,VD03,null,null
ab30e151-a1a7-44f1-b0e1-51a1a704f1b7,de,Marnand,1524,5831,VD,VD03,6.901661,46.76067
f2621091-2246-414e-a210-912246714eeb,de,Henniez,1525,5819,VD,VD03,8.733607,46.649679
846bf682-8434-4393-abf6-828434b393ff,de,Seigneux,1525,5831,VD,VD03,8.733607,46.649679
708ff4d1-ac93-41d9-8ff4-d1ac93f1d978,de,Cremin,1526,5675,VD,VD03,6.823914,46.722221
861f7030-f7cd-4a75-9f70-30f7cd7a75fa,de,Forel-sur-Lucens,1526,5675,VD,VD03,6.823914,46.722221
7382c117-0ef8-4570-82c1-170ef8657020,de,Villeneuve FR,1527,2044,fr,FR01,8.752827,47.658505
a750c8eb-f0fa-490a-90c8-ebf0fa590ae9,de,Praratoud,1528,2044,fr,FR01,6.849903,46.739704
d6ef8d26-3233-4490-af8d-263233a4906a,de,Surpierre,1528,2044,fr,FR01,6.849903,46.739704
4edd3a3a-d585-4b0e-9d3a-3ad585bb0ebe,de,Cheiry,1529,2009,fr,FR01,6.839812,46.753116
14dc551a-013e-428a-9c55-1a013e028a96,de,Payerne,1530,5822,VD,VD03,6.9347425,46.819143
681fbde8-ffcd-4690-9fbd-e8ffcd969039,de,Fétigny,1532,2016,fr,FR01,6.912043,46.792397
9a962a01-d6e5-4bee-962a-01d6e5bbee23,de,Ménières,1533,2027,fr,FR01,6.884994,46.784934
ff4975b3-1d5b-4446-8975-b31d5b5446db,de,Chapelle (Broye),1534,2009,fr,FR01,6.856818,46.773586
651b23cb-2eba-4366-9b23-cb2eba7366bf,de,Sassel,1534,5831,VD,VD03,6.856818,46.773586
69de31ed-e512-408a-9e31-ede512e08a6b,de,Combremont-le-Grand,1535,5831,VD,VD03,null,null
f342467c-5cbc-49d4-8246-7c5cbc29d405,de,Combremont-le-Petit,1536,5831,VD,VD03,null,null
801cceeb-1d7b-4689-9cce-eb1d7b2689f1,de,Champtauroz,1537,5812,VD,VD03,6.783745,46.757145
1dbdf5c1-312a-4a1d-bdf5-c1312a1a1d2c,de,Treytorrens (Payerne),1538,5828,VD,VD03,null,null
1bac593c-a6ca-4ad2-ac59-3ca6ca7ad282,de,Bussy FR,1541,2054,fr,FR01,6.86092,46.833606
2b0f235c-f280-4c68-8f23-5cf280cc68a9,de,Morens FR,1541,2054,fr,FR01,6.86092,46.833606
0805b093-055f-47b0-85b0-93055f17b004,de,Sévaz,1541,2043,fr,FR01,6.86092,46.833606
9d639d0e-96be-4961-a39d-0e96beb96137,de,Rueyres-les-Prés,1542,2054,fr,FR01,6.910914,46.856665
50f10047-0467-47eb-b100-470467f7eb09,de,Grandcour,1543,5817,VD,VD03,6.932124,46.873824
ac1f1f2b-a7e5-4bdb-9f1f-2ba7e5cbdb31,de,Gletterens,1544,2022,fr,FR01,6.931024,46.900255
a74aab24-1f03-4898-8aab-241f037898eb,de,Chevroux,1545,5813,VD,VD03,6.906779,46.888696
92679301-912d-4566-a793-01912d0566f0,de,Vers-chez-Perrin,1551,5822,VD,VD03,6.941987,46.797449
125a3532-578c-460e-9a35-32578c960e9e,de,Trey,1552,5827,VD,VD03,6.921809,46.774843
a1eb81be-c3f4-4f88-ab81-bec3f48f88e1,de,Châtonnaye,1553,2068,fr,FR02,6.938321,46.752828
4e89c8b0-66bf-49b5-89c8-b066bfd9b5c6,de,Rossens VD,1554,5830,VD,VD03,6.929186,46.742578
894c4ab4-37ed-4340-8c4a-b437eda3408c,de,Sédeilles,1554,5830,VD,VD03,6.929186,46.742578
033e3740-a7ee-49aa-be37-40a7ee59aa6b,de,Villarzel,1555,5830,VD,VD03,6.906826,46.743982
71138ad4-46a2-4a5e-938a-d446a2ba5eb2,de,Corcelles-près-Payerne,1562,5816,VD,VD03,null,null
0f354ae7-5d7b-48dc-b54a-e75d7bd8dce9,de,Dompierre FR,1563,2053,fr,FR01,6.989638,46.85493
a52bf9e2-7881-4064-abf9-e2788110648b,de,Domdidier,1564,2053,fr,FR01,7.0160693,46.862642
82786cd1-66bb-4d42-b86c-d166bbad4285,de,Missy,1565,5821,VD,VD03,6.968963,46.874029
16dc9a78-2618-4f15-9c9a-7826180f154f,de,Vallon,1565,2045,fr,FR01,6.968963,46.874029
e7a95814-4935-40bc-a958-14493520bc49,de,Les Friques,1566,2041,fr,FR01,6.903848,46.891611
435d2d7b-34d1-488b-9d2d-7b34d1488b18,de,St-Aubin FR,1566,2041,fr,FR01,6.903848,46.891611
aaa88ea1-1ed6-476b-a88e-a11ed6076b63,de,Delley,1567,2051,fr,FR01,6.968416,46.914464
8dcd902b-794e-4cc6-8d90-2b794e4cc6f9,de,Portalban,1568,2051,fr,FR01,6.9569282,46.8994
1d6e472d-b135-4982-ae47-2db13539828f,de,Avenches,1580,5451,VD,VD03,7.0383454,46.884662
4233e5b6-b26b-48bd-b3e5-b6b26b38bde4,de,Donatyre,1580,5451,VD,VD03,7.0383454,46.884662
b8c49d65-10b1-49a6-849d-6510b109a636,de,Oleyres,1580,5451,VD,VD03,7.0383454,46.884662
d6b6f07a-28c1-41fa-b6f0-7a28c1d1fa4e,de,Villarepos,1583,2254,fr,FR05,7.078231,46.882019
e82ed7ac-ede0-48a4-aed7-acede068a424,de,Villars-le-Grand,1584,5464,VD,VD03,6.998655,46.904101
febfbdbb-ca35-4ed1-bfbd-bbca35bed162,de,Bellerive VD,1585,5464,VD,VD03,6.833008,46.908054
72217d73-20b8-474e-a17d-7320b8074e2f,de,Cotterd,1585,5464,VD,VD03,6.833008,46.908054
ff43d124-20e0-4373-83d1-2420e0d3731b,de,Salavaux,1585,5464,VD,VD03,6.833008,46.908054
fc2f0b56-1c79-4659-af0b-561c79f6595c,de,Vallamand,1586,5464,VD,VD03,7.036886,46.932357
1055de83-1164-4891-95de-831164489193,de,Constantine,1587,5464,VD,VD03,7.018484,46.909053
79aeb0ed-1b01-47f2-aeb0-ed1b0117f245,de,Montmagny,1587,5464,VD,VD03,7.018484,46.909053
7abcf5b0-3aa3-4ec3-bcf5-b03aa3cec3a7,de,Cudrefin,1588,5456,VD,VD03,7.0270575,46.952141
0a7ca8f5-0018-4f23-bca8-f500181f2377,de,Chabrey,1589,5464,VD,VD03,6.982166,46.929702
9d35359c-7360-4333-b535-9c73604333d6,de,Clavaleyres,1595,661,BE,BE01,7.088361,46.894717
5a974740-a9f2-4c7b-9747-40a9f24c7bf2,de,Faoug,1595,5458,VD,VD03,7.088361,46.894717
faaa6a2b-5749-416c-aa6a-2b5749416cad,de,Les Tavernes,1607,5805,VD,VD02,6.835247,46.549122
e9cb8507-807f-4566-8b85-07807f1566ac,de,Les Thioleyres,1607,5805,VD,VD02,6.835247,46.549122
d354ca20-a980-4b77-94ca-20a980cb7744,de,Palézieux,1607,5805,VD,VD02,6.835247,46.549122
4022afb0-1bf1-433c-a2af-b01bf1633c6e,de,Palézieux-Village,1607,5805,VD,VD02,6.835247,46.549122
65ccfbb5-438f-4432-8cfb-b5438f64325e,de,Bussigny-sur-Oron,1608,5805,VD,VD02,6.862491,46.562115
f1cb8181-0d34-4b6d-8b81-810d34cb6d6d,de,Chapelle (Glâne),1608,2066,fr,FR02,6.862491,46.562115
d8796828-6d02-4760-b968-286d020760df,de,Chesalles-sur-Oron,1608,5805,VD,VD02,6.862491,46.562115
defb8886-048b-4eb5-bb88-86048baeb58d,de,Oron-le-Châtel,1608,5805,VD,VD02,6.862491,46.562115
dbd36b85-357b-4e68-936b-85357bae6802,de,Besencens,1609,2335,fr,FR07,6.8814,46.582988
dfaf3d70-e7f5-4b9f-af3d-70e7f57b9fd7,de,Fiaugères,1609,2335,fr,FR07,6.8814,46.582988
dfe58a2c-f9ff-4260-a58a-2cf9ff626024,de,St-Martin FR,1609,2335,fr,FR07,6.8814,46.582988
ccc7bf20-cac6-469b-87bf-20cac6b69b14,de,Châtillens,1610,5805,VD,VD02,6.8053191,46.561877
c5d19bce-84c9-4825-919b-ce84c9082527,de,Oron-la-Ville,1610,5805,VD,VD02,6.8053191,46.561877
fac38131-c34c-4f6c-8381-31c34c7f6c20,de,Vuibroye,1610,5805,VD,VD02,6.8053191,46.561877
612657e4-a40d-49e5-a657-e4a40dc9e546,de,Le Crêt-près-Semsales,1611,2338,fr,FR07,null,null
60f2ed61-4aa3-45f1-b2ed-614aa365f1d9,de,Ecoteaux,1612,5805,VD,VD02,6.854078,46.544434
35de4159-71c2-4e8e-9e41-5971c2ce8eac,de,Maracon,1613,5790,VD,VD02,6.878638,46.553065
8618260e-a56b-4fb0-9826-0ea56b4fb080,de,Granges (Veveyse),1614,2328,fr,FR07,6.80516,46.524317
7214f45b-21a4-44b1-94f4-5b21a4e4b1b5,de,Bossonnens,1615,2323,fr,FR07,6.8481431,46.528939
96bb8771-f130-40ac-bb87-71f130a0ac06,de,Attalens,1616,2321,fr,FR07,6.8574081,46.512039
e552a3b2-669b-4d62-92a3-b2669b1d626e,de,Remaufens,1617,2333,fr,FR07,6.880472,46.535052
1ab6a467-aee1-4200-b6a4-67aee12200a6,de,Tatroz,1617,2321,fr,FR07,6.880472,46.535052
e0ed4201-c409-4abf-ad42-01c4094abf3b,de,Châtel-St-Denis,1618,2325,fr,FR07,6.945905,46.521521
b8ae3653-828b-4afb-ae36-53828b3afb29,de,Les Paccots,1619,2325,fr,FR07,6.943916,46.522506
a37d534c-fd3b-412e-bd53-4cfd3b612ed5,de,Semsales,1623,2336,fr,FR07,6.955708,46.569856
a686fc69-7a36-4438-86fc-697a3694380c,de,Grattavache,1624,2338,fr,FR07,6.920266,46.597601
77877da4-50ad-47af-877d-a450adf7af4d,de,La Verrerie,1624,2338,fr,FR07,6.920266,46.597601
9dc74a3f-8e37-49ff-874a-3f8e3799ff00,de,Progens,1624,2338,fr,FR07,6.920266,46.597601
d4785eb8-b30f-4f3a-b85e-b8b30f5f3a87,de,Maules,1625,2152,fr,FR03,6.990492,46.638724
314594f8-2c22-49b4-8594-f82c22d9b413,de,Sâles (Gruyère),1625,2152,fr,FR03,6.990492,46.638724
c666d168-8725-439d-a6d1-688725939dc9,de,Romanens,1626,2152,fr,FR03,6.9419942,46.650697
cb57023b-b1b2-40fd-9702-3bb1b270fd7e,de,Rueyres-Treyfayes,1626,2152,fr,FR03,6.9419942,46.650697
9eb6254d-5b9c-4a4a-b625-4d5b9cea4adc,de,Treyfayes,1626,2152,fr,FR03,6.9419942,46.650697
60329e20-7547-47cf-b29e-20754737cf94,de,Vaulruz,1627,2155,fr,FR03,6.9862638,46.614726
8ab65b99-dd31-4931-b65b-99dd31893109,de,Vuadens,1628,2160,fr,FR03,7.0047086,46.608402
513bcaef-efe7-4449-bbca-efefe72449ab,de,Bulle,1630,2125,fr,FR03,7.0461463,46.607527
f0264d57-03cd-436d-a64d-5703cdb36d96,de,Bulle 1,1630,2125,fr,FR03,null,null
fcf3e6cb-fa1a-4d66-b3e6-cbfa1a2d6688,de,Bulle 2,1630,2125,fr,FR03,null,null
9eb48d31-8bf8-4f73-b48d-318bf80f737f,de,Bulle centre de traitement,1631,2125,fr,FR03,null,null
d0e0b0a1-1e84-4bd9-a0b0-a11e84ebd913,de,Riaz,1632,2148,fr,FR03,7.0424345,46.642273
f324b6b6-c6d4-41e5-a4b6-b6c6d4e1e561,de,Marsens,1633,2140,fr,FR03,7.049728,46.656244
9199964a-81a5-4f49-9996-4a81a5af4949,de,Vuippens,1633,2140,fr,FR03,7.049728,46.656244
a1f44eb2-92d2-4d45-b44e-b292d26d4551,de,La Roche FR,1634,2149,fr,FR03,7.158598,46.691269
490daac5-3336-4d1d-8daa-c53336ed1d9d,de,La Tour-de-Trême,1635,2125,fr,FR03,7.0586295,46.625008
1121a1dc-2d3e-4d06-a1a1-dc2d3e0d0677,de,Broc,1636,2124,fr,FR03,7.1192983,46.600334
f58fc99e-b23b-48c5-8fc9-9eb23b58c59e,de,Charmey (Gruyère),1637,2163,fr,FR03,7.199832,46.598926
d3ae5234-d4f0-4e14-ae52-34d4f03e1461,de,Morlon,1638,2143,fr,FR03,7.086305,46.623573
c58c3d09-df38-4842-8c3d-09df3838425f,de,Sorens,1642,2153,fr,FR03,7.044561,46.672535
4eec8ae7-effe-40b3-ac8a-e7effed0b3cf,de,Gumefens,1643,2122,fr,FR03,7.07685,46.67729
2e67fd2d-ea69-4f38-a7fd-2dea69df38b7,de,Avry-devant-Pont,1644,2122,fr,FR03,7.086251,46.685279
cafe0524-807c-48ad-be05-24807c88ad80,de,Le Bry,1645,2122,fr,FR03,7.0830203,46.699477
c6a447c6-cbb0-40a0-a447-c6cbb030a03a,de,Echarlens,1646,2131,fr,FR03,7.07688,46.648904
6b3f2143-7507-4284-bf21-437507728412,de,Corbières,1647,2129,fr,FR03,7.116222,46.65375
cd89f59d-3c09-4d0a-89f5-9d3c099d0af2,de,Hauteville,1648,2137,fr,FR03,7.130085,46.66819
9f28ab43-7ef7-45e0-a8ab-437ef765e0d6,de,Pont-la-Ville,1649,2147,fr,FR03,7.110024,46.700951
78752a47-476f-41db-b52a-47476fb1dbce,de,Villarvolard,1651,2129,fr,FR03,7.116732,46.64487
84397409-4fc1-4d4e-b974-094fc16d4eb6,de,Botterens,1652,2123,fr,FR03,7.114274,46.624826
5f029012-67e9-4fb1-8290-1267e99fb135,de,Villarbeney,1652,2123,fr,FR03,7.114274,46.624826
4fd41cfa-b6dd-4a28-941c-fab6dd2a28aa,de,Châtel-sur-Montsalvens,1653,2128,fr,FR03,null,null
cb8c2be5-c990-48f4-8c2b-e5c990a8f486,de,Crésuz,1653,2130,fr,FR03,7.126975,46.617184
af137723-d3bf-4d04-9377-23d3bf8d042b,de,Cerniat FR,1654,2163,fr,FR03,7.20093,46.664901
789b8b10-686d-46b6-9b8b-10686da6b6e3,de,Im Fang,1656,2138,fr,FR03,7.267483,46.605853
b694ec7e-d822-47fd-94ec-7ed822b7fdbf,de,Jaun,1656,2138,fr,FR03,7.267483,46.605853
40a77d7f-9c56-4dd6-a77d-7f9c567dd671,de,Abländschen,1657,843,BE,BE04,7.3074029,46.565187
53d5642e-4c51-47a3-9564-2e4c5197a341,de,La Tine,1658,5842,VD,VD05,7.063937,46.4661
1f0448dc-98be-4d82-8448-dc98be3d8220,de,Rossinière,1658,5842,VD,VD05,7.063937,46.4661
f36e1d86-b3bb-4fca-ae1d-86b3bbdfcab4,de,Flendruz,1659,5843,VD,VD05,7.214277,46.499224
7007512f-b0b7-4134-8751-2fb0b7f13472,de,Rougemont,1659,5843,VD,VD05,7.214277,46.499224
22222e26-fd83-4775-a22e-26fd83d7758a,de,Château-d'Oex,1660,5841,VD,VD05,7.137467,46.447343
999f1ec2-ed1e-4ba6-9f1e-c2ed1e9ba6f4,de,L'Etivaz,1660,5841,VD,VD05,7.137467,46.447343
0e0ce1cd-aac2-47d9-8ce1-cdaac2d7d918,de,La Lécherette,1660,5841,VD,VD05,7.137467,46.447343
a1df6092-d97d-470f-9f60-92d97d970f19,de,Les Moulins,1660,5841,VD,VD05,7.137467,46.447343
afabb75a-0819-48cf-abb7-5a081998cfc4,de,Le Pâquier-Montbarry,1661,2145,fr,FR03,null,null
48d7aa38-31af-4741-97aa-3831af274124,de,Epagny,1663,2135,fr,FR03,7.080487,46.577701
63a52486-e3de-4872-a524-86e3de0872a8,de,Gruyères,1663,2135,fr,FR03,7.080487,46.577701
7c55e7ec-074f-43d1-95e7-ec074fb3d135,de,Moléson-sur-Gruyères,1663,2135,fr,FR03,null,null
a77daa0d-de5b-43b5-bdaa-0dde5b73b587,de,Pringy,1663,2135,fr,FR03,7.080487,46.577701
b4827340-627f-4c3a-8273-40627f4c3a27,de,Estavannens,1665,2162,fr,FR03,7.099881,46.573161
c26f95e9-2028-48e9-af95-e9202888e9cf,de,Grandvillard,1666,2134,fr,FR03,7.106078,46.531556
27794968-e0c6-4133-b949-68e0c6f13394,de,Villars-sous-Mont,1666,2162,fr,FR03,7.106078,46.531556
fec01bb3-4a80-4b23-801b-b34a805b23fd,de,Enney,1667,2162,fr,FR03,7.0835704,46.572411
f59323c2-8fbe-409d-9323-c28fbe909dd9,de,Albeuve,1669,2121,fr,FR03,7.0535986,46.482967
55c35066-9ded-47cc-8350-669ded67cc58,de,Les Sciernes-d'Albeuve,1669,2121,fr,FR03,null,null
a8018105-345c-4436-8181-05345c1436c6,de,Lessoc,1669,2121,fr,FR03,7.0535986,46.482967
a48b9978-2445-4745-8b99-782445c745b3,de,Montbovon,1669,2121,fr,FR03,7.0535986,46.482967
3eb1f55b-950e-442b-b1f5-5b950e742b6b,de,Neirivue,1669,2121,fr,FR03,7.0535986,46.482967
597e1d84-e507-4fc4-be1d-84e5071fc41e,de,Bionnens,1670,2102,fr,FR02,6.8515515,46.623971
f50fcea6-a43a-4c93-8fce-a6a43afc9335,de,Esmonts,1670,2102,fr,FR02,6.8515515,46.623971
f374abe2-e868-4485-b4ab-e2e868b485d9,de,Ursy,1670,2102,fr,FR02,6.8515515,46.623971
d8cab937-aeff-4ad5-8ab9-37aeffdad5a8,de,Auboranges,1673,2061,fr,FR02,6.805051,46.582484
026b3be0-b1d3-493f-ab3b-e0b1d3b93f56,de,Ecublens FR,1673,2072,fr,FR02,6.805051,46.582484
1148681f-b0a0-4783-8868-1fb0a0378396,de,Gillarens,1673,2097,fr,FR02,6.805051,46.582484
bbb9fefc-2ae9-4565-b9fe-fc2ae94565f3,de,Promasens,1673,2097,fr,FR02,6.805051,46.582484
9630f78d-41dd-42fe-b0f7-8d41dd02fe6d,de,Rue,1673,2097,fr,FR02,6.805051,46.582484
e8f66cdb-5701-4def-b66c-db5701ddef23,de,Montet (Glâne),1674,2089,fr,FR02,6.836437,46.639257
7be43159-0d7f-4976-a431-590d7fe976cd,de,Morlens,1674,2102,fr,FR02,6.836437,46.639257
5b0301d3-5f72-4158-8301-d35f726158e5,de,Vuarmarens,1674,2102,fr,FR02,6.836437,46.639257
3c83cbf8-1b13-4b7d-83cb-f81b131b7d0b,de,Blessens,1675,2097,fr,FR02,6.8494078,46.616428
d80779a5-c485-44ab-8779-a5c485a4abe8,de,Mossel,1675,2102,fr,FR02,6.8494078,46.616428
c758dbd5-03e9-4c3d-98db-d503e9dc3db7,de,Vauderens,1675,2102,fr,FR02,6.8494078,46.616428
2aafaeea-d320-4bb1-afae-ead3203bb19d,de,Chavannes-les-Forts,1676,2099,fr,FR02,null,null
77d821be-19f5-4c9f-9821-be19f5cc9f62,de,Prez-vers-Siviriez,1677,2099,fr,FR02,6.87385,46.638405
811cf1a4-fcbb-428f-9cf1-a4fcbba28f9b,de,Siviriez,1678,2099,fr,FR02,6.8862851,46.652193
dc0c090e-5570-4734-8c09-0e557077347e,de,Villaraboud,1679,2099,fr,FR02,6.911987,46.659577
ebf0549c-60c6-47b1-b054-9c60c697b192,de,Berlens,1680,2087,fr,FR02,6.915691,46.699726
62e5241d-07ab-45e0-a524-1d07ab45e07e,de,Romont FR,1680,2096,fr,FR02,6.915691,46.699726
6b0f9510-2ad9-4a2d-8f95-102ad9aa2d09,de,Billens,1681,2063,fr,FR02,6.8875,46.685092
bbfc8666-993a-450e-bc86-66993a650e3a,de,Hennens,1681,2063,fr,FR02,6.8875,46.685092
6cbbd82a-3dbb-4fc7-bbd8-2a3dbb2fc718,de,Cerniaz VD,1682,5831,VD,VD03,6.864827,46.692084
b59a2884-d72c-4d37-9a28-84d72cbd373d,de,Dompierre VD,1682,5671,VD,VD03,6.864827,46.692084
2af266ba-c0ca-41fb-b266-bac0caf1fbc2,de,Lovatens,1682,5674,VD,VD03,6.864827,46.692084
371b8f2a-8422-48b4-9b8f-2a842218b496,de,Prévonloup,1682,5683,VD,VD03,6.864827,46.692084
b29b81e8-2c1d-4960-9b81-e82c1d1960f7,de,Villars-Bramard,1682,5831,VD,VD03,6.864827,46.692084
912ef08f-4130-4567-aef0-8f41309567b8,de,Brenles,1683,5675,VD,VD03,6.858015,46.668609
9083fb66-5292-4fcc-83fb-665292cfcc60,de,Chesalles-sur-Moudon,1683,5675,VD,VD03,null,null
e98426f7-91f9-4c84-8426-f791f91c8490,de,Sarzens,1683,5675,VD,VD03,6.858015,46.668609
b39f76c7-1dcf-45c5-9f76-c71dcf05c5c8,de,Mézières FR,1684,2087,fr,FR02,6.894757,46.683134
2f422049-6706-449e-8220-496706649e0e,de,Villariaz,1685,2113,fr,FR02,6.940853,46.664546
7472b887-9104-4b21-b2b8-879104cb21f7,de,Grangettes-près-Romont,1686,2079,fr,FR02,null,null
77077b5a-f4a3-4b7e-877b-5af4a35b7efd,de,La Neirigue,1686,2113,fr,FR02,6.973767,46.670081
db4e9617-933a-460d-8e96-17933af60d6f,de,Estévenens,1687,2113,fr,FR02,6.931891,46.634992
4c393a1f-dec9-4456-b93a-1fdec9e456bf,de,La Magne,1687,2113,fr,FR02,6.931891,46.634992
6ff5d8d5-d431-41e8-b5d8-d5d431c1e806,de,Vuisternens-devant-Romont,1687,2113,fr,FR02,null,null
a3410036-b512-4fd2-8100-36b5129fd2b9,de,Lieffrens,1688,2113,fr,FR02,6.901256,46.636339
a9e8a00d-cc7e-48d4-a8a0-0dcc7e88d45f,de,Sommentier,1688,2113,fr,FR02,6.901256,46.636339
357419d0-0c1f-4131-b419-d00c1ff1313e,de,Le Châtelard-près-Romont,1689,2067,fr,FR02,null,null
e48ee96e-9d31-42ea-8ee9-6e9d3192eaa1,de,Lussy FR,1690,2116,fr,FR02,6.958966,46.719884
5134baca-f432-4970-b4ba-caf432e970a1,de,Villaz-St-Pierre,1690,2111,fr,FR02,6.958966,46.719884
2822b06b-d9e1-4128-a2b0-6bd9e1912814,de,Villarimboud,1691,2116,fr,FR02,6.963345,46.740865
76363e1b-3699-4635-b63e-1b3699763541,de,Massonnens,1692,2086,fr,FR02,6.971642,46.694908
63289779-8b33-4c87-a897-798b337c87bd,de,Chavannes-sous-Orsonnens,1694,2114,fr,FR02,null,null
6094c665-55f8-48de-94c6-6555f8f8de1f,de,Orsonnens,1694,2114,fr,FR02,7.0168179,46.700006
a98312b0-1131-459c-8312-b01131459c92,de,Villargiroud,1694,2114,fr,FR02,7.0168179,46.700006
fb430236-6182-458c-8302-366182e58ca1,de,Villarsiviriaux,1694,2114,fr,FR02,7.0168179,46.700006
ac4c4377-4e75-4ad0-8c43-774e755ad0c8,de,Estavayer-le-Gibloux,1695,2236,fr,FR04,null,null
70da5176-c6b5-4f27-9a51-76c6b52f278f,de,Rueyres-St-Laurent,1695,2236,fr,FR04,7.016638,46.716864
4bb109c2-4368-4818-b109-c24368b818d9,de,Villarlod,1695,2236,fr,FR04,7.016638,46.716864
9dddc021-a1c7-442e-9dc0-21a1c7f42ef9,de,Villarsel-le-Gibloux,1695,2236,fr,FR04,null,null
80584e04-ce70-4de2-984e-04ce703de2b2,de,Vuisternens-en-Ogoz,1696,2236,fr,FR04,null,null
d6dfed37-6f1c-4a41-9fed-376f1c3a41d5,de,La Joux FR,1697,2113,fr,FR02,6.911166,46.620669
d893896a-4bec-48f5-9389-6a4bece8f54f,de,Les Ecasseys,1697,2113,fr,FR02,6.911166,46.620669
38f62160-0c46-47b7-b621-600c46b7b73c,de,Bouloz,1699,2337,fr,FR07,6.8695617,46.598417
b12d8811-eacb-4c73-ad88-11eacb8c737e,de,Pont (Veveyse),1699,2337,fr,FR07,6.8695617,46.598417
9704743b-119f-46fb-8474-3b119f46fb48,de,Porsel,1699,2337,fr,FR07,6.8695617,46.598417
5c1d4478-2467-4c02-9d44-7824676c0265,de,Fribourg,1700,2196,fr,FR04,7.1597436,46.80418
40f966f0-4a6c-4d28-b966-f04a6cdd28d8,de,Freiburg 1,1701,2196,fr,FR04,null,null
42fc32bd-52d6-42cc-bc32-bd52d622cc66,fr,Fribourg,1701,2196,fr,FR04,null,null
31d6d58a-6c08-4809-96d5-8a6c08280948,it,Friburgo 1,1701,2196,fr,FR04,null,null
6d630dac-b3b7-466c-a30d-acb3b7866ce1,de,Freiburg 7,1707,2196,fr,FR04,null,null
d5d15571-0b97-4198-9155-710b97719828,fr,Fribourg,1707,2196,fr,FR04,null,null
45008f47-6ff3-499d-808f-476ff3b99dc0,it,Friburgo 7,1707,2196,fr,FR04,null,null
a22a90d0-17d7-46f5-aa90-d017d7b6f5e5,de,Fribourg,1708,2196,fr,FR04,null,null
a2fb7a63-d2f8-4b0e-bb7a-63d2f86b0e00,de,Tafers,1712,2306,fr,FR06,7.2209787,46.816313
90742265-fd6b-4041-b422-65fd6b204166,de,St. Antoni,1713,2302,fr,FR06,7.2824659,46.8186
bc5728d6-0cef-4e06-9728-d60cef5e065d,de,Heitenried,1714,2296,fr,FR06,7.3023915,46.836301
6141f473-9ae2-43b3-81f4-739ae253b3c6,de,Alterswil FR,1715,2291,fr,FR06,7.258036,46.792452
589ce615-a16c-4a8c-9ce6-15a16caa8ca2,de,Oberschrot,1716,2299,fr,FR06,7.2817742,46.663286
60bd11cc-5f64-4ce5-bd11-cc5f643ce5d1,de,Plaffeien,1716,2299,fr,FR06,7.2817742,46.663286
20c9acc0-b0ff-416d-89ac-c0b0ff116dd3,de,Schwarzsee,1716,2299,fr,FR06,7.2817742,46.663286
a6ddd622-6234-42bd-9dd6-22623472bdd9,de,St. Ursen,1717,2304,fr,FR06,7.221503,46.786473
18c3085c-4275-44ef-8308-5c4275b4ef0c,de,Rechthalten,1718,2301,fr,FR06,7.245521,46.764865
5398cd63-bbf8-47cc-98cd-63bbf847cc9d,de,Brünisried,1719,2292,fr,FR06,7.275161,46.757378
d1e479d9-fb7d-4cf3-a479-d9fb7d9cf3b5,de,Zumholz,1719,2299,fr,FR06,7.275161,46.757378
ea686dcc-af80-4d8f-a86d-ccaf802d8fb5,de,Chésopelloz,1720,2183,fr,FR04,7.0962453,46.802101
cf2b7a08-33ce-4ac6-ab7a-0833ce6ac692,de,Corminboeuf,1720,2183,fr,FR04,7.0962453,46.802101
03167f46-56ef-4d29-967f-4656effd29d0,de,Cormérod,1721,2272,fr,FR05,7.080615,46.854733
d6364959-18c2-4460-b649-5918c20460d6,de,Cournillens,1721,2272,fr,FR05,7.080615,46.854733
9eaa2177-9b47-4a8f-aa21-779b479a8fa1,de,Courtion,1721,2272,fr,FR05,7.080615,46.854733
3d57ed1b-0135-475a-97ed-1b0135a75a47,de,Misery,1721,2272,fr,FR05,7.080615,46.854733
e715fab4-ae06-4f71-95fa-b4ae06df7116,de,Misery-Courtion,1721,2272,fr,FR05,null,null
7e58e4a3-799d-4440-98e4-a3799da440c8,de,Bourguillon,1722,2196,fr,FR04,7.17596,46.800331
edd489c9-7918-4dab-9489-c979180dab2c,de,Marly,1723,2206,fr,FR04,7.1492046,46.776007
f2b6c521-5c8f-45d6-b6c5-215c8f65d6f8,de,Marly 1,1723,2206,fr,FR04,null,null
7b57676c-cf36-4ff8-9767-6ccf367ff82b,de,Pierrafortscha,1723,2216,fr,FR04,7.1492046,46.776007
8574a9a8-b68c-4124-b4a9-a8b68cb124f1,de,Villarsel-sur-Marly,1723,2230,fr,FR04,null,null
6fe03d5e-ff13-4351-a03d-5eff13c35194,de,Bonnefontaine,1724,2220,fr,FR04,7.141011,46.738657
ea8dc44d-f8da-4ffa-8dc4-4df8da5ffaca,de,Essert FR,1724,2220,fr,FR04,7.141011,46.738657
96289cfc-ab92-4e8e-a89c-fcab928e8e71,de,Ferpicloz,1724,2194,fr,FR04,7.141011,46.738657
e40b198a-c278-49b1-8b19-8ac278b9b140,de,Le Mouret,1724,2220,fr,FR04,7.141011,46.738657
3f0a159e-3ac3-4a15-8a15-9e3ac37a1501,de,Montévraz,1724,2220,fr,FR04,7.141011,46.738657
3e9ebce6-0c42-40e6-9ebc-e60c4200e69a,de,Oberried FR,1724,2220,fr,FR04,7.141011,46.738657
64b9efa8-e460-4071-b9ef-a8e460907112,de,Senèdes,1724,2225,fr,FR04,7.141011,46.738657
ffb27046-df66-4f59-b270-46df664f595a,de,Zénauva,1724,2220,fr,FR04,7.141011,46.738657
2fcf2868-a2d6-43b5-8f28-68a2d603b561,de,Posieux,1725,2233,fr,FR04,7.095301,46.760601
2588a0b9-6143-483c-88a0-b96143d83c20,de,Farvagny-le-Grand,1726,2236,fr,FR04,7.066274,46.727704
a5660c4d-bbc0-40b4-a60c-4dbbc070b48f,de,Farvagny-le-Petit,1726,2236,fr,FR04,7.066274,46.727704
5f162d21-1c16-4f7f-962d-211c16bf7f5d,de,Grenilles,1726,2236,fr,FR04,7.066274,46.727704
ea0b4158-d091-43a0-8b41-58d09113a0a0,de,Posat,1726,2236,fr,FR04,7.066274,46.727704
403f5efe-cd6b-45a6-bf5e-fecd6b65a627,de,Corpataux,1727,2236,fr,FR04,7.08987,46.74142
5b87c72d-2bc3-4486-87c7-2d2bc35486ff,de,Magnedens,1727,2236,fr,FR04,7.08987,46.74142
24c3c37f-9e5e-4eba-83c3-7f9e5e9eba10,de,Rossens FR,1728,2236,fr,FR04,7.089078,46.722236
de06cce8-de39-4383-86cc-e8de394383ab,de,Ecuvillens,1730,2233,fr,FR04,7.0836374,46.74982
9d72c86a-0cba-4075-b2c8-6a0cba307591,de,Ependes FR,1731,2189,fr,FR04,7.031874,46.072915
5b875cb9-0bdc-4e34-875c-b90bdcee3401,de,Arconciel,1732,2171,fr,FR04,7.120408,46.750028
df8e2d52-e64c-4afa-8e2d-52e64ccafaf5,de,Treyvaux,1733,2226,fr,FR04,7.1438302,46.724215
dfa3ec4c-ea35-4af7-a3ec-4cea35aaf79d,de,Tentlingen,1734,2307,fr,FR06,7.198929,46.763994
1f7e7e5f-82ef-4584-be7e-5f82ef758437,de,Giffers,1735,2294,fr,FR06,7.224144,46.754979
f39c2ebf-719f-47cf-9c2e-bf719fc7cf64,de,St. Silvester,1736,2303,fr,FR06,7.220626,46.7364
9aec1289-3eb9-4fed-ac12-893eb94fed80,de,Plasselb,1737,2300,fr,FR06,7.2436592,46.711152
00f88198-ad21-47f4-b881-98ad2157f45d,de,Sangernboden,1738,852,BE,BE01,7.348328,46.719373
2c201567-c1f2-4c96-a015-67c1f2ec96a1,de,Neyruz FR,1740,2211,fr,FR04,7.064559,46.76518
0e1d7b9f-af0d-4ef6-9d7b-9faf0d9ef614,de,Cottens FR,1741,2186,fr,FR04,7.036656,46.750917
6d9934c9-f97a-4611-9934-c9f97a561189,de,Autigny,1742,2173,fr,FR04,7.026557,46.737294
34b493a7-7e62-40da-b493-a77e62c0da1e,de,Chénens,1744,2177,fr,FR04,6.997438,46.742321
22cc7fdd-d67a-4c1d-8c7f-ddd67a9c1d57,de,Lentigny,1745,2234,fr,FR04,7.004445,46.759065
fa1d2a2e-0ad0-4b64-9d2a-2e0ad02b64c1,de,Prez-vers-Noréaz,1746,2221,fr,FR04,7.014549,46.785851
6e19f9f0-a9de-46cd-99f9-f0a9de56cdba,de,Corserey,1747,2185,fr,FR04,6.98869,46.770981
264de316-492a-410b-8de3-16492a810bb9,de,Torny-le-Grand,1748,2115,fr,FR02,6.966834,46.77063
b0aa1cdc-069a-444e-aa1c-dc069a144e7a,de,Middes,1749,2115,fr,FR02,6.949336,46.767654
5072a03c-8952-4e66-b2a0-3c8952fe6609,de,Villars-sur-Glâne,1752,2228,fr,FR04,7.1251367,46.794358
4d4fc049-c1e0-4fa3-8fc0-49c1e0bfa3db,de,Villars-sur-Glâne 1,1752,2228,fr,FR04,null,null
913e8db5-14fe-46d7-be8d-b514fe36d78b,de,Matran,1753,2208,fr,FR04,7.0910044,46.783914
0757ac2b-04c7-486f-97ac-2b04c7886f0e,de,Avry-Centre FR,1754,2174,fr,FR04,null,null
2bf56951-97b8-4bfb-b569-5197b84bfbd3,de,Avry-sur-Matran,1754,2174,fr,FR04,7.0962977,46.781159
0f7c179b-b227-4b9c-bc17-9bb2276b9c3a,de,Corjolens,1754,2174,fr,FR04,7.0962977,46.781159
dc3e2218-9e3a-487d-be22-189e3ad87d0d,de,Rosé,1754,2174,fr,FR04,7.0962977,46.781159
d4418dca-7c2a-4db3-818d-ca7c2acdb3e3,de,Lovens,1756,2234,fr,FR04,7.022437,46.773683
db373f7d-77d3-4b51-b73f-7d77d31b512b,de,Onnens FR,1756,2234,fr,FR04,7.022437,46.773683
ebbc0dee-2f6f-4f38-bc0d-ee2f6f8f3808,de,Noréaz,1757,2213,fr,FR04,7.0365469,46.802212
f4fc03cd-df51-487b-bc03-cddf51b87ba1,de,Givisiez,1762,2197,fr,FR04,7.1255803,46.812728
d3565293-0822-4a79-9652-9308221a79f3,de,Granges-Paccot,1763,2198,fr,FR04,7.1483591,46.823708
ef80881f-0455-473f-8088-1f0455c73f62,de,Grolley,1772,2200,fr,FR04,7.0658765,46.834722
36a77c9b-adf7-4157-a77c-9badf7515792,de,Nierlet-les-Bois,1772,2217,fr,FR04,7.0658765,46.834722
1b592f18-e05a-4564-992f-18e05a3564d0,de,Ponthaux,1772,2217,fr,FR04,7.0658765,46.834722
35e0f13f-6ff6-4585-a0f1-3f6ff67585c3,de,Chandon,1773,2053,fr,FR01,7.023145,46.833119
107417b7-ec19-4325-b417-b7ec19032563,de,Léchelles,1773,2053,fr,FR01,7.023145,46.833119
2a825647-567d-462a-8256-47567d762ac1,de,Russy,1773,2053,fr,FR01,7.023145,46.833119
9940c7ee-9b44-40f2-80c7-ee9b4400f211,de,Cousset,1774,2029,fr,FR01,6.977285,46.818335
27f804e0-1f18-4e05-b804-e01f18fe056d,de,Montagny-les-Monts,1774,2029,fr,FR01,6.977285,46.818335
f1ae5eb8-22d7-4c4d-ae5e-b822d78c4d76,de,Grandsivaz,1775,2029,fr,FR01,6.9843883,46.783288
18d33d33-b0d4-4694-933d-33b0d4369436,de,Mannens,1775,2029,fr,FR01,6.9843883,46.783288
9031f508-76a1-4004-b1f5-0876a1300462,de,Montagny-la-Ville,1776,2029,fr,FR01,6.9771194,46.816224
a56426e2-d381-4d4d-a426-e2d3815d4d20,de,Autafond,1782,2175,fr,FR04,7.0950408,46.828733
41fabb90-d279-4b19-babb-90d2797b192a,de,Belfaux,1782,2175,fr,FR04,7.0950408,46.828733
1a73a632-d2d5-4f60-b3a6-32d2d5ff6055,de,Cormagens,1782,2235,fr,FR04,7.0950408,46.828733
1782a2d6-6653-4538-82a2-d66653b538dd,de,Formangueires,1782,2235,fr,FR04,7.0950408,46.828733
832c8713-58f9-48db-ac87-1358f9b8dbad,de,La Corbaz,1782,2235,fr,FR04,7.0950408,46.828733
59e2d981-eff1-47ac-a2d9-81eff1c7ac70,de,Lossy,1782,2235,fr,FR04,7.0950408,46.828733
60a4e146-8857-41bf-a4e1-468857a1bfeb,de,Barberêche,1783,2254,fr,FR05,7.15878,46.859837
9c598da1-8f58-4c4f-998d-a18f58fc4f9b,de,Pensier,1783,2254,fr,FR05,7.15878,46.859837
863f08d2-7f6d-4db4-bf08-d27f6d8db491,de,Courtepin,1784,2254,fr,FR05,7.1262774,46.864309
98e101d9-b056-431b-a101-d9b056a31b2b,de,Wallenried,1784,2254,fr,FR05,7.1262774,46.864309
e187decd-8b7f-4884-87de-cd8b7fa8842d,de,Cressier FR,1785,2257,fr,FR05,7.13546,46.897081
f88af17a-48fc-48e5-8af1-7a48fc68e594,de,Sugiez,1786,2284,fr,FR05,7.1105984,46.97103
6afdfd37-adbe-4b2d-bdfd-37adbefb2d36,de,Mur (Vully) FR,1787,2284,fr,FR05,7.049398,46.941564
0b128c8c-7e54-4531-928c-8c7e54653110,de,Mur (Vully) VD,1787,5464,VD,VD03,7.049398,46.941564
79274dc9-252a-4eed-a74d-c9252afeed4a,de,Môtier (Vully),1787,2284,fr,FR05,7.049398,46.941564
96adf716-7cda-4077-adf7-167cda70775b,de,Praz (Vully),1788,2284,fr,FR05,7.09891,46.953854
0aa373c5-f5bc-4133-a373-c5f5bcf13392,de,Lugnorre,1789,2284,fr,FR05,7.069387,46.95
b9491a5f-db7f-4f95-891a-5fdb7f0f9575,de,Courtaman,1791,2254,fr,FR05,7.131064,46.871941
aebcaad9-ef82-4750-bcaa-d9ef82b750d3,de,Cordast,1792,2262,fr,FR05,7.1498264,46.862963
a04bf4c1-98be-466a-8bf4-c198bee66a6f,de,Guschelmuth,1792,2262,fr,FR05,7.1498264,46.862963
d0116388-05b3-4fd7-9163-8805b3afd7b3,de,Jeuss,1793,2275,fr,FR05,7.167655,46.903673
708ea038-8226-4dbc-8ea0-3882269dbcc3,de,Salvenach,1794,2275,fr,FR05,7.151784,46.909391
46f4f3a9-b610-4cf2-b4f3-a9b6106cf213,de,Courlevon,1795,2275,fr,FR05,7.108923,46.891513
2fa85a69-428f-407a-a85a-69428f907a13,de,Courgevaux,1796,2250,fr,FR05,7.103852,46.905133
44cdfb2f-0381-4f96-8dfb-2f03811f96ed,de,Münchenwiler,1797,669,BE,BE01,7.123924,46.907758
b6285f7d-2ecc-4384-a85f-7d2ecc438460,de,Vevey,1800,5890,VD,VD05,6.8480469,46.464232
5c83830d-9464-499f-8383-0d9464799f21,de,Vevey 1,1800,5890,VD,VD05,null,null
21791b38-0b43-43e5-b91b-380b4373e59a,de,Le Mont-Pèlerin,1801,5882,VD,VD05,6.83138,46.48211
9af7260f-e4c7-4621-b726-0fe4c78621b1,de,Corseaux,1802,5883,VD,VD05,6.8282728,46.471045
12541420-b10d-4bd7-9414-20b10d8bd75e,de,Chardonne,1803,5882,VD,VD05,6.8216035,46.488605
44de2b3d-dc9b-423c-9e2b-3ddc9b223cce,de,Corsier-sur-Vevey,1804,5884,VD,VD05,6.8709996,46.494413
4612ad0d-d50f-4ed4-92ad-0dd50faed46e,de,Jongny,1805,5885,VD,VD05,6.8465444,46.487613
be962bee-29c6-4067-962b-ee29c6d0676e,de,St-Légier-La Chiésaz,1806,5888,VD,VD05,null,null
ed5edc2a-eef9-47c7-9edc-2aeef9d7c71f,de,Blonay,1807,5881,VD,VD05,6.9219711,46.47787
3437a560-cae2-4f16-b7a5-60cae2ff1656,de,Les Monts-de-Corsier,1808,5884,VD,VD05,null,null
57c5d7eb-2bae-45dd-85d7-eb2bae05dd35,de,Fenil-sur-Corsier,1809,5884,VD,VD05,6.864987,46.482776
557867fb-b835-47c2-b867-fbb83557c219,de,Vevey Services spéciaux,1811,5890,VD,VD05,null,null
d93e8b50-5b63-4bdb-be8b-505b634bdb5d,de,La Tour-de-Peilz,1814,5889,VD,VD05,6.8693519,46.454904
157dc54b-2ab4-4e37-bdc5-4b2ab4de3726,de,Clarens,1815,5886,VD,VD05,6.890805,46.440945
ad3a4c76-40d9-476c-ba4c-7640d9b76c32,de,Chailly-Montreux,1816,5886,VD,VD05,6.89164,46.449077
0dadf634-8a59-49a9-adf6-348a5909a9ee,de,Brent,1817,5886,VD,VD05,6.9011,46.457725
b623cca4-6b61-4c1d-a3cc-a46b616c1dac,de,Montreux La Redoute,1818,5886,VD,VD05,null,null
fa57a83c-2f83-4e0e-97a8-3c2f830e0e55,de,Montreux,1820,5886,VD,VD05,6.9407902,46.451794
5e05e429-a97b-41e7-85e4-29a97bf1e784,de,Montreux 1,1820,5886,VD,VD05,null,null
26cee0d1-bb67-4d26-8ee0-d1bb671d267a,de,Montreux 2,1820,5886,VD,VD05,null,null
0b8ad9a8-3043-4544-8ad9-a83043d5441f,de,Territet,1820,5886,VD,VD05,6.9407902,46.451794
a4d3fb05-1286-4c46-93fb-0512860c4681,de,Veytaux,1820,5891,VD,VD05,6.9407902,46.451794
8a6616db-03a8-474c-a616-db03a8f74c1e,de,Chernex,1822,5886,VD,VD05,6.911375,46.443545
33f62694-0ae5-4071-b626-940ae5a07174,de,Glion,1823,5886,VD,VD05,6.924678,46.414038
b7a29c4e-f48d-4ef5-a29c-4ef48d2ef535,de,Caux,1824,5886,VD,VD05,6.9320994,46.433459
2c6b153b-9779-4d3d-ab15-3b9779dd3d48,de,Chamby,1832,5886,VD,VD05,6.91388,46.44888
a701194e-ef3a-4d49-8119-4eef3a9d4905,de,Villard-sur-Chamby,1832,5886,VD,VD05,6.91388,46.44888
f2d9c0a5-267c-4e45-99c0-a5267cee459c,de,Les Avants,1833,5886,VD,VD05,6.9515822,46.449441
4968fc87-7f45-41c3-a8fc-877f4591c31e,de,Villeneuve VD,1844,5414,VD,VD05,6.968948,46.403846
9a600666-2a79-4d4c-a006-662a795d4c7e,de,Noville,1845,5408,VD,VD05,6.8961335,46.383023
4566032c-5a0d-4ea2-a603-2c5a0d9ea2e9,de,Chessel,1846,5403,VD,VD05,6.894606,46.349049
431c8240-4680-4ecd-9c82-4046808ecd13,de,Rennaz,1847,5412,VD,VD05,6.916829,46.375443
1d9d0965-3d8e-4015-9d09-653d8e501506,de,Roche VD,1852,5413,VD,VD05,6.843875,46.356976
87587a9f-788c-4249-987a-9f788c32495e,de,Yvorne,1853,5415,VD,VD05,6.95034,46.338129
7215cce3-7a48-445f-95cc-e37a48545f58,de,Leysin,1854,5407,VD,VD05,7.0110751,46.352533
25870258-74b7-4010-8702-5874b770109f,de,Corbeyrier,1856,5404,VD,VD05,6.973547,46.360438
2433a25f-b991-4fee-b3a2-5fb9919fee4a,de,Aigle,1860,5401,VD,VD05,6.9723877,46.31503
0dc428ee-9e08-45e4-8428-ee9e0845e4e2,de,La Comballaz,1862,5410,VD,VD05,7.0592096,46.383669
e585902d-5648-4aa3-8590-2d56487aa30f,de,Les Mosses,1862,5410,VD,VD05,7.0592096,46.383669
12dbf29d-84f5-4efd-9bf2-9d84f58efdcb,de,Le Sépey,1863,5410,VD,VD05,7.0484688,46.367055
224e3b07-c9fd-437c-8e3b-07c9fdd37c1b,de,Vers-l'Eglise,1864,5411,VD,VD05,7.131035,46.353724
6222ea0d-ff54-4d31-a2ea-0dff54dd318b,de,Les Diablerets,1865,5411,VD,VD05,7.2310715,46.293055
82deaf9d-d39a-48e9-9eaf-9dd39a48e978,de,La Forclaz VD,1866,5410,VD,VD05,7.071397,46.351873
81f3ce2c-ad8a-4c99-b3ce-2cad8afc993d,de,Ollon VD,1867,5409,VD,VD05,7.0201854,46.295976
7151f459-f7d7-4d1a-91f4-59f7d70d1abe,de,Panex,1867,5409,VD,VD05,7.0201854,46.295976
83e50398-a739-4067-a503-98a7391067e1,de,St-Triphon,1867,5409,VD,VD05,7.0201854,46.295976
15bc8271-a5cb-4dd8-bc82-71a5cb0dd861,de,Collombey,1868,6152,VS,VS08,6.9520674,46.263243
28946a0f-92ef-46f4-946a-0f92ef26f4ee,de,Massongex,1869,6215,VS,VS08,6.9824443,46.234523
a95db972-7c60-41ee-9db9-727c60c1eee5,de,Monthey,1870,6153,VS,VS08,6.915184,46.240403
a561a5e4-7d4e-4b66-a1a5-e47d4efb6654,de,Monthey 1,1870,6153,VS,VS08,null,null
9e2ed1a6-45c8-44c8-aed1-a645c854c813,de,Monthey 2,1870,6153,VS,VS08,null,null
e3b6bc8a-94dd-4258-b6bc-8a94dda25853,de,Choëx,1871,6153,VS,VS08,6.954794,46.238503
b07a3d88-a08a-41b2-ba3d-88a08a51b2cc,de,Les Giettes,1871,6153,VS,VS08,6.954794,46.238503
5e7ed80a-6bed-4acb-bed8-0a6bed3acb70,de,Troistorrents,1872,6156,VS,VS08,6.885231,46.232821
dda0ad7e-1f0d-4f0b-a0ad-7e1f0d1f0b29,de,Champoussin,1873,6157,VS,VS08,6.8889405,46.191702
2e75aae4-c9b3-4868-b5aa-e4c9b368685c,de,Les Crosets,1873,6157,VS,VS08,6.8889405,46.191702
90999e51-625a-4a8f-999e-51625a3a8f53,de,Val-d'Illiez,1873,6157,VS,VS08,6.8889405,46.191702
af52158f-0de4-4fd6-9215-8f0de45fd67d,de,Champéry,1874,6151,VS,VS08,6.8458276,46.158793
e36f2ac3-d829-48b8-af2a-c3d82938b899,de,Morgins,1875,6156,VS,VS08,6.8495326,46.232878
61c7ee76-90e8-4d6a-87ee-7690e84d6a03,de,Bex,1880,5402,VD,VD05,7.0889668,46.255611
06fe5de4-8d01-4125-be5d-e48d01a125ba,de,Fenalet-sur-Bex,1880,5402,VD,VD05,7.0889668,46.255611
1965ed65-7a03-45aa-a5ed-657a0335aaa9,de,Frenières-sur-Bex,1880,5402,VD,VD05,7.0889668,46.255611
83b4a232-24c6-4e75-b4a2-3224c6de75e8,de,Les Plans-sur-Bex,1880,5402,VD,VD05,7.0889668,46.255611
4ae22a92-6b15-478c-a22a-926b15d78c39,de,Les Posses-sur-Bex,1880,5402,VD,VD05,7.0889668,46.255611
f13a1dac-e8db-4898-ba1d-ace8db8898f8,de,Gryon,1882,5405,VD,VD05,7.094726,46.279418
b6105ae7-da78-449f-905a-e7da78c49fec,de,Arveyes,1884,5409,VD,VD05,7.0089278,46.280989
521ce12b-0230-4715-9ce1-2b02308715b8,de,Huémoz,1884,5409,VD,VD05,7.0089278,46.280989
e42e7976-7b59-48d6-ae79-767b5918d6d1,de,Villars-sur-Ollon,1884,5409,VD,VD05,7.0089278,46.280989
3ee665ec-88a5-4444-a665-ec88a5244469,de,Chesières,1885,5409,VD,VD05,7.0558515,46.299236
6974f379-ac45-45fd-b4f3-79ac4525fda3,de,Mex VS,1890,6217,VS,VS08,7.009492,46.198071
7e01b8bf-9d2d-4476-81b8-bf9d2d147625,de,St-Maurice,1890,6217,VS,VS08,7.009492,46.198071
659075ac-f3ea-456c-9075-acf3ea856cc6,de,Vérossaz,1891,6220,VS,VS08,6.96658,46.20116
fc826683-6c09-47fd-8266-836c0907fd31,de,Lavey-Village,1892,5406,VD,VD05,7.042983,46.199861
7439dc8f-a6a7-441c-b9dc-8fa6a7f41cd1,de,Lavey-les-Bains,1892,5406,VD,VD05,7.042983,46.199861
8b53cb0b-8c64-440d-93cb-0b8c64b40d2d,de,Morcles,1892,5406,VD,VD05,7.042983,46.199861
8dfc08a1-5b66-425a-bc08-a15b66925a4f,de,Muraz (Collombey),1893,6152,VS,VS08,6.926319,46.279117
9c91f52e-9a7b-4639-91f5-2e9a7b3639c9,de,Vionnaz,1895,6158,VS,VS08,6.8712836,46.307759
cc090da9-3241-4598-890d-a93241359817,de,Miex,1896,6159,VS,VS08,6.8491742,46.335965
58ccf0cd-282f-4935-8cf0-cd282f29350f,de,Vouvry,1896,6159,VS,VS08,6.8491742,46.335965
9bf8776f-abf1-41b3-b877-6fabf1f1b325,de,Bouveret,1897,6154,VS,VS08,6.859508,46.367655
42c73912-b5c2-4490-8739-12b5c29490b9,de,Les Evouettes,1897,6154,VS,VS08,6.859508,46.367655
5d64ef5d-4c8c-4ba9-a4ef-5d4c8ccba904,de,St-Gingolph,1898,6155,VS,VS08,6.804453,46.370151
382dec8c-4261-453c-adec-8c4261c53c68,de,Torgon,1899,6158,VS,VS08,6.87658,46.320309
a6ad60a1-461b-4f63-ad60-a1461bef6381,de,Evionnaz,1902,6213,VS,VS08,6.9481291,46.14821
087b9ca3-253f-4b75-bb9c-a3253f5b75bf,de,Collonges,1903,6211,VS,VS07,7.050894,46.173387
405f0256-60fe-42bd-9f02-5660fea2bd55,de,Vernayaz,1904,6219,VS,VS07,7.0318674,46.138045
a447f8fa-8b94-4f06-87f8-fa8b942f067f,de,Dorénaz,1905,6212,VS,VS07,7.057486,46.1511
3b56892b-6cb4-468d-9689-2b6cb4e68d9f,de,Charrat,1906,6132,VS,VS07,7.136735,46.121336
3e02e1db-2f6d-4bbb-82e1-db2f6dabbb73,de,Saxon,1907,6141,VS,VS07,7.1842901,46.13626
ce661111-5417-4519-a611-115417b51967,de,Riddes,1908,6139,VS,VS07,7.2379945,46.143016
e89df94a-5c62-4ad1-9df9-4a5c62bad1d7,de,Mayens-de-Chamoson,1911,6022,VS,VS06,7.1653073,46.198505
4faedd0d-36a1-4f50-aedd-0d36a1cf5094,de,Ovronnaz,1911,6135,VS,VS07,7.1653073,46.198505
ff0eae1c-2ac4-47ea-8eae-1c2ac497ea4f,de,Dugny (Leytron),1912,6135,VS,VS07,7.1558725,46.200196
df57c01f-c1cb-466e-97c0-1fc1cba66e03,de,Leytron,1912,6135,VS,VS07,7.1558725,46.200196
43acd2ff-fe70-4ad7-acd2-fffe709ad77f,de,Montagnon (Leytron),1912,6135,VS,VS07,null,null
78dd0628-f058-439c-9d06-28f058639c76,de,Produit (Leytron),1912,6135,VS,VS07,7.1558725,46.200196
e9bab0a4-b297-406b-bab0-a4b297706bc6,de,Saillon,1913,6140,VS,VS07,7.1586642,46.177498
75c0ca60-df15-4700-80ca-60df157700c0,de,Auddes-sur-Riddes,1914,6139,VS,VS07,7.259091,46.149152
59163f8b-199b-4cb1-963f-8b199b3cb1a7,de,Isérables,1914,6134,VS,VS07,7.259091,46.149152
b12e77c4-49c1-4d5f-ae77-c449c1cd5faa,de,La Tzoumaz,1918,6139,VS,VS07,7.232991,46.144805
6760cc92-c737-4121-a0cc-92c737b121ef,de,Martigny Groupe Mutuel,1919,6136,VS,VS07,null,null
2c0da01f-189a-4e76-8da0-1f189a4e76a4,de,Martigny,1920,6136,VS,VS07,7.0808325,46.10723
3eb54ccf-72f7-43b6-b54c-cf72f7d3b6f2,fr,Martigny 1,1920,6136,VS,VS07,null,null
92458d71-fc3c-4d4c-858d-71fc3cfd4c2d,it,Martigny 1,1920,6136,VS,VS07,null,null
7ec3981f-b7c0-4d38-8398-1fb7c03d3884,fr,Martigny 2,1920,6136,VS,VS07,null,null
1f49edb5-0415-421b-89ed-b50415b21bac,it,Martigny 2,1920,6136,VS,VS07,null,null
95a7db63-677c-4bc4-a7db-63677c9bc480,de,Martinach,1920,6136,VS,VS07,null,null
f0a36786-821d-41de-a367-86821dc1de34,de,Martigny-Croix,1921,6137,VS,VS07,7.1002995,46.082144
1e1dc8ae-8f71-4fc9-9dc8-ae8f71efc9fe,de,Les Granges (Salvan),1922,6218,VS,VS07,null,null
40e37c0e-b14e-460e-a37c-0eb14ea60e3e,de,Salvan,1922,6218,VS,VS07,6.9597877,46.110271
4c55cbf6-70b5-45ef-95cb-f670b555ef9b,de,Le Trétien,1923,6218,VS,VS07,6.998924,46.119519
295ce129-8a5e-4bc2-9ce1-298a5e3bc250,de,Les Marécottes,1923,6218,VS,VS07,6.998924,46.119519
41fba01c-b16c-4823-bba0-1cb16c282303,de,Finhaut,1925,6214,VS,VS07,6.946639,46.071529
c9351250-731b-459c-b512-50731b959cc2,de,Le Châtelard VS,1925,6214,VS,VS07,6.946639,46.071529
0b8dec45-0542-4f34-8dec-450542ef346c,de,Fully,1926,6133,VS,VS07,7.1117436,46.157528
417e5acf-3462-4da5-be5a-cf34622da52e,de,Chemin,1927,6036,VS,VS07,7.10281,46.077431
f9ab8cb8-2d5e-4750-ab8c-b82d5ed75081,de,Ravoire,1928,6137,VS,VS07,7.044956,46.095956
203b999e-ba40-4d37-bb99-9eba407d3709,de,Trient,1929,6142,VS,VS07,6.998798,46.039548
0e81a3cc-3c41-42e2-81a3-cc3c41b2e2dd,de,Bovernier,1932,6131,VS,VS07,7.082431,46.06419
96004eb0-9cdd-40b4-804e-b09cddd0b4d2,de,Les Valettes (Bovernier),1932,6131,VS,VS07,null,null
422899b5-4438-4cec-a899-b544380ceca6,de,Chamoille (Sembrancher),1933,6035,VS,VS07,null,null
3f1585c0-64bf-4e7c-9585-c064bffe7c9f,de,La Garde (Sembrancher),1933,6035,VS,VS07,null,null
e822c515-4b7b-4303-a2c5-154b7b3303ed,de,Sembrancher,1933,6035,VS,VS07,7.1456494,46.069374
b108a2e6-b386-47c5-88a2-e6b38617c54c,de,Vens (Sembrancher),1933,6036,VS,VS07,null,null
47216d9b-b7dc-46df-a16d-9bb7dcc6df6a,de,Bruson,1934,6031,VS,VS07,7.2150966,46.067126
ea3c9b18-d4d3-4207-bc9b-18d4d342071f,de,Le Châble VS,1934,6031,VS,VS07,7.2150966,46.067126
06c42da4-12d4-49bb-842d-a412d489bbf7,de,Verbier,1936,6031,VS,VS07,7.2252806,46.100141
d4562637-712a-4631-9626-37712a9631f7,de,Orsières,1937,6034,VS,VS07,7.1013978,45.972252
cfddd988-b672-48c2-9dd9-88b67238c242,de,Champex-Lac,1938,6034,VS,VS07,7.1130649,46.036265
0abf4e7f-0800-4434-bf4e-7f0800b434b9,de,Cries (Vollèges),1941,6036,VS,VS07,7.156268,46.092184
551bdbc4-1349-4a6d-9bdb-c41349aa6d55,de,Vollèges,1941,6036,VS,VS07,7.156268,46.092184
a3350ff5-dd7b-48ed-b50f-f5dd7b08edca,de,Levron,1942,6036,VS,VS07,9.266452,47.512984
64891b07-6eaf-4c58-891b-076eaf4c58cc,de,Praz-de-Fort,1943,6034,VS,VS07,7.1406116,45.980514
a25e6a8f-f998-4399-9e6a-8ff9982399b0,de,La Fouly VS,1944,6034,VS,VS07,7.104615,45.916726
011f4ea7-3fc6-4099-9f4e-a73fc6b0999b,de,Chandonne (Liddes),1945,6033,VS,VS07,7.188409,45.980234
fceb8420-8950-4692-ab84-208950769237,de,Chez Petit (Liddes),1945,6033,VS,VS07,null,null
14f8faa6-0080-4988-b8fa-a600806988ca,de,Dranse (Liddes),1945,6033,VS,VS07,7.188409,45.980234
de021008-c453-4573-8210-08c453e573b5,de,Fontaine Dessous (Liddes),1945,6033,VS,VS07,null,null
0d0f1355-a90d-4459-8f13-55a90d345971,de,Fontaine Dessus (Liddes),1945,6033,VS,VS07,null,null
75ca38a0-4127-4f0c-8a38-a04127cf0cf5,de,Fornex (Liddes),1945,6033,VS,VS07,null,null
a0c00e5a-ad30-482a-800e-5aad30182a4d,de,Les Moulins VS (Liddes),1945,6033,VS,VS07,null,null
2f355b1d-b8fa-45ca-b55b-1db8fa85ca3f,de,Liddes,1945,6033,VS,VS07,7.188409,45.980234
e1481151-93ab-4b5c-8811-5193abdb5c07,de,Palasuit (Liddes),1945,6033,VS,VS07,7.188409,45.980234
7ebaff19-2a52-43e2-baff-192a5263e25e,de,Petit Vichères (Liddes),1945,6033,VS,VS07,null,null
748279d1-3c3d-4541-8279-d13c3d6541b7,de,Rive Haute (Liddes),1945,6033,VS,VS07,null,null
31d03549-9490-46c2-9035-49949036c2e2,de,Vichères (Liddes),1945,6033,VS,VS07,7.188409,45.980234
3027c6c4-5b4e-45ed-a7c6-c45b4ea5ed41,de,Bourg-St-Pierre,1946,6032,VS,VS07,7.210719,45.923083
6273ac88-012c-4501-b3ac-88012cb5014d,de,Champsec,1947,6031,VS,VS07,7.233223,46.066042
3bd12f7e-5c7c-4c5f-912f-7e5c7cdc5f0a,de,Versegères,1947,6031,VS,VS07,7.233223,46.066042
7da9614c-bbb2-40dd-a961-4cbbb2c0dd0f,de,Fionnay,1948,6031,VS,VS07,7.2945898,46.033925
82e23ae2-1858-4a5c-a23a-e218588a5c4b,de,Lourtier,1948,6031,VS,VS07,7.2945898,46.033925
e89a645e-ed22-4296-9a64-5eed22e29676,de,Sarreyer,1948,6031,VS,VS07,7.2945898,46.033925
de776a19-8f10-4c0a-b76a-198f108c0aaf,fr,Sion,1950,6266,VS,VS06,7.3659863,46.230436
f550ccd8-287f-40ff-90cc-d8287f10ff3d,it,Sion,1950,6266,VS,VS06,7.3659863,46.230436
3e834d6b-0099-43e3-834d-6b009983e3d8,fr,Sion 2,1950,6266,VS,VS06,null,null
964138d3-3490-4551-8138-d3349055512c,it,Sion 2,1950,6266,VS,VS06,null,null
d1eac0b3-9f0d-48a6-aac0-b39f0db8a643,fr,Sion 4,1950,6266,VS,VS06,null,null
acf3124a-3850-4702-b312-4a38503702b6,it,Sion 4,1950,6266,VS,VS06,null,null
adbfe764-8dce-4664-bfe7-648dce1664a3,de,Sitten,1950,6266,VS,VS06,7.3659863,46.230436
c8dc6816-8809-4583-9c68-1688092583b6,de,Sitten,1950,6266,VS,VS06,null,null
1084f2cc-b943-4daa-84f2-ccb943cdaaca,fr,Sion,1951,6266,VS,VS06,null,null
91553b67-3d59-41c5-953b-673d5961c529,it,Sion,1951,6266,VS,VS06,null,null
17d7333d-f20d-4009-9733-3df20db0097a,de,Sitten,1951,6266,VS,VS06,null,null
f21a1e18-3cc3-4776-9a1e-183cc3677637,de,Chamoson,1955,6022,VS,VS06,7.1970604,46.215044
195bec69-9300-4d27-9bec-6993001d275a,de,Grugnay (Chamoson),1955,6022,VS,VS06,7.1970604,46.215044
f5a8e93b-f728-4588-a8e9-3bf7283588f5,de,Les Vérines (Chamoson),1955,6022,VS,VS06,null,null
6ce03fec-2912-48a2-a03f-ec291228a24f,de,Némiaz (Chamoson),1955,6022,VS,VS06,7.1970604,46.215044
0fb71fb8-11be-400f-b71f-b811be600f1f,de,St-Pierre-de-Clages,1955,6022,VS,VS06,null,null
55481bf7-7707-432d-881b-f77707832d21,de,Ardon,1957,6021,VS,VS06,7.237855,46.230066
fd36f718-aa82-4b11-b6f7-18aa825b1196,de,St-Léonard,1958,6246,VS,VS06,7.425407,46.255381
b9805712-772a-4b29-8057-12772a2b29c2,de,Uvrier,1958,6266,VS,VS06,7.425407,46.255381
bb1e35c9-e86e-4cf8-9e35-c9e86e3cf8ed,de,Vernamiège,1961,6090,VS,VS06,7.434863,46.21101
ceec5773-9119-423a-ac57-739119523ac3,de,Pont-de-la-Morge (Sion),1962,6266,VS,VS06,null,null
6d109e7b-005b-423f-909e-7b005b623f49,de,Vétroz,1963,6025,VS,VS06,7.2705708,46.225828
0576414c-e299-442a-b641-4ce299e42aab,de,Conthey,1964,6023,VS,VS06,7.2547287,46.2725
f9bf7a21-b8c1-4899-bf7a-21b8c17899fc,de,Savièse,1965,6265,VS,VS06,7.3113917,46.309342
7712f0d9-2de0-4ef1-92f0-d92de01ef1bd,de,Argnou (Ayent),1966,6082,VS,VS06,7.4102366,46.327959
70a12f27-a52e-4bc5-a12f-27a52efbc52b,de,Ayent,1966,6082,VS,VS06,null,null
e8afdba0-a15f-4323-afdb-a0a15fa3233b,de,Blignou (Ayent),1966,6082,VS,VS06,7.4102366,46.327959
efcaf465-3109-4031-8af4-65310950316a,de,Botyre (Ayent),1966,6082,VS,VS06,7.4102366,46.327959
6568461b-cf0d-4aba-a846-1bcf0d3abadd,de,Fortunau (Ayent),1966,6082,VS,VS06,7.4102366,46.327959
0ad41536-c785-4873-9415-36c785d873c3,de,La Place (Ayent),1966,6082,VS,VS06,7.4102366,46.327959
ec38ace2-bd55-46ae-b8ac-e2bd5596aeed,de,Luc (Ayent),1966,6082,VS,VS06,7.4102366,46.327959
7ebb22c8-3edb-4ff7-bb22-c83edbaff719,de,Saxonne (Ayent),1966,6082,VS,VS06,7.4102366,46.327959
8194948f-d3d8-467e-9494-8fd3d8867e62,de,Signèse (Ayent),1966,6082,VS,VS06,7.4102366,46.327959
9e772057-a184-4948-b720-57a184494858,de,St-Romain (Ayent),1966,6082,VS,VS06,7.4102366,46.327959
75f02a1b-fd3a-4914-b02a-1bfd3a6914ed,de,Villa (Ayent),1966,6082,VS,VS06,7.4102366,46.327959
eb36b37b-30ea-4eec-b6b3-7b30eafeec50,de,Bramois,1967,6266,VS,VS06,7.3988387,46.233583
87ae3755-9ba0-45a8-ae37-559ba085a877,de,Mase,1968,6090,VS,VS06,7.458064,46.193562
1214bcf8-d878-4a86-94bc-f8d8783a86d0,de,Eison (St-Martin),1969,6087,VS,VS06,7.457268,46.158064
aca98f27-03ad-4f2c-a98f-2703ad5f2c4a,de,Liez (St-Martin),1969,6087,VS,VS06,7.457268,46.158064
293f3789-02a8-49bf-bf37-8902a869bf68,de,St-Martin VS,1969,6087,VS,VS06,7.457268,46.158064
bb3c9573-ce20-40ad-bc95-73ce2000ad72,de,Suen (St-Martin),1969,6087,VS,VS06,7.457268,46.158064
547a5cfe-7c97-44bc-ba5c-fe7c97c4bc6b,de,Trogne (St-Martin),1969,6087,VS,VS06,7.457268,46.158064
e54fbaa6-835d-4b0b-8fba-a6835d6b0baa,de,Champlan (Grimisuat),1971,6263,VS,VS06,null,null
745b5aef-0b88-4a2a-9b5a-ef0b88ba2a74,de,Grimisuat,1971,6263,VS,VS06,7.3808593,46.255965
9fbf15d2-ee12-4230-bf15-d2ee1252308f,de,Anzère,1972,6082,VS,VS06,7.400421,46.296981
333fd9e4-81eb-4745-bfd9-e481ebb74571,de,Nax,1973,6090,VS,VS06,7.47582,46.207798
22bcdb7b-90e4-4e50-bcdb-7b90e43e5066,de,Arbaz,1974,6261,VS,VS06,7.375556,46.298611
a9f7b981-000c-4993-b7b9-81000c199391,de,St-Séverin,1975,6023,VS,VS06,5.41122,50.530128
128138b7-e8f2-4cec-8138-b7e8f22cec6b,de,Aven,1976,6023,VS,VS06,7.3076119,46.258117
59175697-4975-4562-9756-9749753562f8,de,Daillon,1976,6023,VS,VS06,7.3076119,46.258117
b4a707ee-c5fd-4024-a707-eec5fd20241c,de,Erde,1976,6023,VS,VS06,7.3076119,46.258117
7d460fc0-d279-4942-860f-c0d279d94270,de,Icogne,1977,6239,VS,VS05,7.454108,46.325077
22949d70-c8df-4be0-949d-70c8df9be040,de,Lens,1978,6240,VS,VS05,7.4579916,46.294677
bb398b67-252e-4fcc-b98b-67252e1fcc09,de,Vex,1981,6089,VS,VS06,7.3910496,46.196851
fba1a76c-55a3-4b8b-a1a7-6c55a3ab8b0a,de,Euseigne,1982,6084,VS,VS06,7.4142897,46.16153
b0add6b3-7927-4323-add6-b37927c32365,de,Evolène,1983,6083,VS,VS06,7.5093526,46.049789
09811f84-dbf1-41e9-811f-84dbf1a1e944,de,Lanna,1983,6083,VS,VS06,7.5093526,46.049789
d5cc937b-4581-48ad-8c93-7b458198ad26,de,La Tour VS,1984,6083,VS,VS06,7.5195907,46.083466
ee8f8fcb-e8b9-40d8-8f8f-cbe8b9c0d8b2,de,Les Haudères,1984,6083,VS,VS06,7.5195907,46.083466
d1e42b15-8dce-435a-a42b-158dce135a9c,de,La Forclaz VS,1985,6083,VS,VS06,7.515359,46.098297
874a55fa-203f-4863-8a55-fa203f986365,de,La Sage,1985,6083,VS,VS06,7.515359,46.098297
439e3a83-6081-470b-9e3a-836081070be3,de,Villa (Evolène),1985,6083,VS,VS06,7.515359,46.098297
072b7d96-7630-4b23-ab7d-967630bb2343,de,Arolla,1986,6083,VS,VS06,7.4837096,46.035958
d4bed75c-8454-46c1-bed7-5c845486c1d5,de,Hérémence,1987,6084,VS,VS06,7.3956333,46.088772
005edd0a-83c1-4c60-9edd-0a83c12c6034,de,Les Collons,1988,6089,VS,VS06,7.371336,46.181429
bad2c4c1-c6a3-48c7-92c4-c1c6a358c755,de,Thyon,1988,6089,VS,VS06,7.371336,46.181429
62318001-78f9-41c9-b180-0178f9d1c9b0,de,Arvillard (Salins),1991,6266,VS,VS06,7.3536756,46.207624
a5ba5662-b5c6-45b4-ba56-62b5c665b486,de,Misériez (Salins),1991,6266,VS,VS06,7.3536756,46.207624
aa6b00f5-d7e8-429c-ab00-f5d7e8f29cc6,de,Pravidondaz (Salins),1991,6266,VS,VS06,null,null
841f0014-02d8-4727-9f00-1402d8d727a3,de,Salins,1991,6266,VS,VS06,7.3536756,46.207624
20ff5463-9413-4f5d-bf54-6394131f5d44,de,Turin (Salins),1991,6266,VS,VS06,7.3536756,46.207624
16f3ded0-8d15-47d1-b3de-d08d15a7d13c,de,Crête-à-l'Oeil(Les Agettes),1992,6266,VS,VS06,null,null
38bf99ce-7606-4075-bf99-ce7606007536,de,La Vernaz (Les Agettes),1992,6266,VS,VS06,null,null
4145540d-72b4-4acb-8554-0d72b41acb8a,de,Les Agettes,1992,6266,VS,VS06,7.368009,46.199086
386712a2-e430-40ab-a712-a2e430e0aba1,de,Les Mayens-de-Sion,1992,6266,VS,VS06,7.368009,46.199086
ad7e890d-64f7-4157-be89-0d64f7e157ca,de,Clèbes (Nendaz),1993,6024,VS,VS06,7.3379753,46.197221
bf67ba21-a786-4344-a7ba-21a786e34475,de,Veysonnaz,1993,6267,VS,VS06,7.3379753,46.197221
9fc57dff-2b37-43a6-857d-ff2b3723a6dc,de,Aproz (Nendaz),1994,6024,VS,VS06,7.3180982,46.198447
2af8a103-c61e-4085-b8a1-03c61e2085bb,de,Baar (Nendaz),1996,6024,VS,VS06,7.28313,46.152039
bbd62265-99f1-4a59-9622-6599f16a59e4,de,Basse-Nendaz,1996,6024,VS,VS06,7.28313,46.152039
e77ae5db-6c72-40c5-bae5-db6c7270c56f,de,Beuson (Nendaz),1996,6024,VS,VS06,7.28313,46.152039
c2a985d9-4e81-4de8-a985-d94e81ade82a,de,Bieudron (Nendaz),1996,6024,VS,VS06,7.28313,46.152039
2ccef66d-8ccd-4913-8ef6-6d8ccd791321,de,Brignon (Nendaz),1996,6024,VS,VS06,7.28313,46.152039
e946d3ae-8d8f-4df9-86d3-ae8d8f4df939,de,Condémines (Nendaz),1996,6024,VS,VS06,null,null
d5ffa5a7-130a-4b78-bfa5-a7130a3b78f2,de,Fey (Nendaz),1996,6024,VS,VS06,7.28313,46.152039
2994d971-d23e-473a-94d9-71d23e373a2a,de,Saclentse,1996,6024,VS,VS06,7.28313,46.152039
bb3f2f5f-6fe2-4f5f-bf2f-5f6fe2af5f11,de,Haute-Nendaz,1997,6024,VS,VS06,7.315865,46.136053
e86d25d1-687b-473b-ad25-d1687b873b4f,de,Siviez (Nendaz),1997,6024,VS,VS06,7.315865,46.136053
d85f8bd7-51ac-4882-9f8b-d751ac28825f,de,Sornard (Nendaz),1997,6024,VS,VS06,7.315865,46.136053
95ed3688-2815-4ec3-ad36-882815cec3b0,fr,Neuchâtel,2000,6458,NE,NE01,6.938099,47.00942
aebf9392-3391-4446-bf93-923391b4467b,it,Neuchâtel,2000,6458,NE,NE01,6.938099,47.00942
b9463c44-e3d7-40a7-863c-44e3d780a7f1,de,Neuenburg,2000,6458,NE,NE01,6.938099,47.00942
bcc33033-8acd-4cd0-8330-338acd8cd05b,fr,Neuchâtel 1,2001,6458,NE,NE01,null,null
47296e13-1e99-4399-a96e-131e9953994b,it,Neuchâtel 1,2001,6458,NE,NE01,null,null
83a701ff-647a-4e1f-a701-ff647ace1fc9,de,Neuenburg 1,2001,6458,NE,NE01,null,null
86546412-b454-4b39-9464-12b4543b3997,fr,Neuchâtel 2,2002,6458,NE,NE01,null,null
a85b93ec-0e90-4684-9b93-ec0e90d68439,it,Neuchâtel 2,2002,6458,NE,NE01,null,null
9d155395-08ca-48eb-9553-9508ca28eba2,de,Neuenburg 2,2002,6458,NE,NE01,null,null
982112f5-ecee-46d6-a112-f5ecee76d670,de,Neuchâtel OFS,2010,6458,NE,NE01,null,null
73dd0965-c1f3-4584-9d09-65c1f30584a5,de,Auvernier,2012,6416,NE,NE01,6.8786858,46.9775
9bfe7919-d101-47cb-be79-19d101d7cbd7,de,Colombier NE,2013,6416,NE,NE01,6.860917,46.96958
c0718bb8-db8c-42ae-b18b-b8db8c22ae7d,de,Bôle,2014,6416,NE,NE01,6.8371304,46.96887
d43ee34b-2680-485d-bee3-4b2680485d35,de,Areuse,2015,6404,NE,NE01,6.857165,46.957225
cb911a4f-4c93-4b55-911a-4f4c936b55e8,de,Cortaillod,2016,6408,NE,NE01,6.847917,46.944009
0602155e-a783-4936-8215-5ea783793699,de,Boudry,2017,6404,NE,NE01,6.8077468,46.953114
56b640b5-1f1d-4c81-b640-b51f1d8c811c,de,Chambrelien,2019,6413,NE,NE01,6.803973,46.986265
08b82630-8145-44c8-b826-30814524c86f,de,Rochefort,2019,6413,NE,NE01,6.803973,46.986265
3f81588d-bacc-4a83-8158-8dbacc3a839a,de,Bevaix,2022,6417,NE,NE01,6.8041303,46.931163
13dab38f-0883-4546-9ab3-8f08839546f6,de,Gorgier,2023,6417,NE,NE01,6.7650556,46.924247
cb4f443e-8134-4afd-8f44-3e81347afd1f,de,St-Aubin-Sauges,2024,6417,NE,NE01,6.755201,46.89986
c4367022-7861-4f59-b670-227861cf5924,de,Chez-le-Bart,2025,6417,NE,NE01,6.7828033,46.900382
40a957b9-a975-4701-a957-b9a975d70159,de,Fresens,2027,6417,NE,NE01,6.747247,46.886716
acb5c977-9ff8-46a9-b5c9-779ff896a999,de,Montalchez,2027,6417,NE,NE01,6.747247,46.886716
394dcfb6-25e6-47d1-8dcf-b625e6f7d1b8,de,Vaumarcus,2028,6417,NE,NE01,6.745425,46.873294
4984e750-a505-4b61-84e7-50a5058b6176,de,Peseux,2034,6412,NE,NE01,6.8894893,46.995552
0edea5c7-6461-4ae5-9ea5-c764615ae523,de,Corcelles NE,2035,6407,NE,NE01,6.875569,46.985117
64e8a5a7-aae6-461d-a8a5-a7aae6b61def,de,Cormondrèche,2036,6407,NE,NE01,6.869562,46.98055
1fb49a68-50cf-433e-b49a-6850cfb33ef2,de,Montezillon,2037,6413,NE,NE01,6.831644,47.000457
b289164e-8198-4703-8916-4e81984703ca,de,Montmollin,2037,6487,NE,NE01,6.831644,47.000457
a802d2ac-72ea-4692-82d2-ac72ea9692f7,de,Valangin,2042,6485,NE,NE01,6.902546,46.953292
87c2fb91-0207-4483-82fb-910207b483fd,de,Boudevilliers,2043,6487,NE,NE01,6.881124,47.031
d4696465-884d-438e-a964-65884d938e14,de,Fontaines NE,2046,6487,NE,NE01,6.874298,47.060726
49e6880a-2321-493c-a688-0a2321493cde,de,Fontainemelon,2052,6487,NE,NE01,6.8837839,47.059121
2b5badf3-b3f1-48dc-9bad-f3b3f148dc2f,de,La Vue-des-Alpes,2052,6487,NE,NE01,6.8837839,47.059121
8c52a55b-36fa-4e6b-92a5-5b36fa8e6bf8,de,Cernier,2053,6487,NE,NE01,6.90062,47.076185
9a64978f-4ac3-4a7f-a497-8f4ac37a7fd4,de,Chézard-St-Martin,2054,6487,NE,NE01,6.925595,47.072854
5ee3b245-5538-4292-a3b2-455538029252,de,Les Vieux-Prés,2054,6487,NE,NE01,6.925595,47.072854
a064cf00-d250-498e-a4cf-00d250598e24,de,Dombresson,2056,6487,NE,NE01,6.9533862,47.084497
93915c20-51c1-4138-915c-2051c1713841,de,Villiers,2057,6487,NE,NE01,6.993208,47.089123
3cf988b5-252d-40d7-b988-b5252db0d7e3,de,Le Pâquier NE,2058,6487,NE,NE01,6.989688,47.106986
80df47da-f2a6-4ffb-9f47-daf2a62ffb2c,de,Engollon,2063,6487,NE,NE01,6.930508,47.026029
40a73aed-033a-419a-a73a-ed033a819a2a,de,Fenin,2063,6487,NE,NE01,6.930508,47.026029
066a1f19-2090-4e97-aa1f-1920908e9719,de,Saules,2063,6487,NE,NE01,6.930508,47.026029
54b51a98-60f6-4fcf-b51a-9860f64fcf12,de,Vilars NE,2063,6487,NE,NE01,6.930508,47.026029
3e8d18b6-631d-4445-8d18-b6631df4456d,de,Savagnier,2065,6487,NE,NE01,6.956586,47.050346
2bdc6fea-20b2-41af-9c6f-ea20b211af57,de,Chaumont,2067,6458,NE,NE01,6.9497155,47.012327
