id,city,zip_code,communal_code,canton_code,latitude,longitude,region_code
38f5a5fe-b9c5-4ea4-a638-c83b6c1d3ffd,"Aeugst am Albis",8914,1,ZH,47.267,8.488,ZH05
de5434b9-3eb7-4cc4-9e0b-d856e6adf23e,Aeugstertal,8914,1,ZH,47.283,8.494,ZH05
0893802b-e550-4385-a822-cf0258e976af,Zwillikon,8909,2,ZH,47.288,8.431,ZH05
07e4fb4b-2834-48c2-b370-20be33f9756d,"Affoltern am Albis",8910,2,ZH,47.279,8.449,ZH05
053a6a56-2b98-4ec9-b31c-a979dca7c54a,Bonstetten,8906,3,ZH,47.316,8.468,ZH05
366701dc-2170-44c9-8a1c-a98323ffe228,"Hausen am Albis",8915,4,ZH,47.242,8.535,ZH05
babddc1f-4001-4ecb-9c1f-ae48d60f3bbd,Ebertswil,8925,4,ZH,47.226,8.55,ZH05
c20bfd13-bffb-4c06-bda0-42b7dd4ed742,Hedingen,8908,5,ZH,47.298,8.45,ZH05
7321accd-87c6-4115-98ec-947968fd14d9,"Kappel am Albis",8926,6,ZH,47.227,8.525,ZH05
421d4a6c-b509-447a-9f85-a46ef18b4657,Hauptikon,8926,6,ZH,47.23,8.495,ZH05
47c7d04c-7865-481f-b7ec-f3639ce011fb,Uerzlikon,8926,6,ZH,47.222,8.499,ZH05
585673bd-95c6-4aa3-9c1f-dbd2e75eda4a,Knonau,8934,7,ZH,47.224,8.461,ZH05
4344ce95-235e-4ff2-95b2-c41d3307e245,Maschwanden,8933,8,ZH,47.235,8.426,ZH05
6a340763-cc1e-4615-adae-71c9213be683,Mettmenstetten,8932,9,ZH,47.243,8.464,ZH05
b9dab218-403e-40d8-8a4c-b884d2e0a292,Obfelden,8912,10,ZH,47.264,8.423,ZH05
3b2a8b52-28db-4caf-8ae6-05511eef2c38,Ottenbach,8913,11,ZH,47.283,8.404,ZH05
8b90e1c1-f806-4e52-b691-88879ebb32ef,Rifferswil,8911,12,ZH,47.243,8.497,ZH05
de515195-284d-401e-89e6-426c2015f3c9,Stallikon,8143,13,ZH,47.326,8.491,ZH05
630729c9-b9e8-48c5-b23d-537c3d83a070,Uetliberg,8143,13,ZH,47.349,8.491,ZH05
61aee140-c0b0-47b7-8167-513ed3ed33ab,Wettswil,8907,14,ZH,47.338,8.475,ZH05
480cb867-414a-4268-9fff-26e5fe0b27c6,"Adlikon b. Andelfingen",8452,21,ZH,47.581,8.694,ZH08
3c0754a3-e04a-4dd7-a762-d1bed7dbd488,"Benken ZH",8463,22,ZH,47.653,8.654,ZH08
9845bab7-56d2-4f6e-91b6-def9ab6a7e0f,"Berg am Irchel",8415,23,ZH,47.57,8.598,ZH08
16814a29-d7a4-4b28-b73a-ade170804773,Gräslikon,8415,23,ZH,47.557,8.605,ZH08
2a15f111-f410-4d36-976f-d7834388647b,"Buch am Irchel",8414,24,ZH,47.549,8.623,ZH08
70ff17d3-6a97-4da4-a4bd-e838f2228775,Dachsen,8447,25,ZH,47.667,8.614,ZH08
845b08c7-fa86-4f14-bed3-0daec4364120,Dorf,8458,26,ZH,47.572,8.648,ZH08
ad93acac-9cbd-45b2-a17e-f3ebfaa0a64b,Feuerthalen,8245,27,ZH,47.691,8.641,ZH08
1b7ceda9-5b5a-42ee-9c98-6a9f0093c9f5,Langwiesen,8246,27,ZH,47.684,8.663,ZH08
27acc854-b622-4123-bfa7-06f395c725ef,Flaach,8416,28,ZH,47.573,8.603,ZH08
90230020-3428-4787-8ed4-bf7cc90a4d21,Flurlingen,8247,29,ZH,47.684,8.628,ZH08
5615b63c-0cab-4d77-ac57-4dffee327895,Andelfingen,8450,30,ZH,47.595,8.679,ZH08
344f7842-20ab-4bf5-9835-3dbebd2457a5,Henggart,8444,31,ZH,47.563,8.683,ZH08
4e57827a-9d15-4af5-9139-39c4bf750e92,Humlikon,8457,32,ZH,47.576,8.67,ZH08
4894b686-cd05-4369-b388-5be32378179b,Kleinandelfingen,8451,33,ZH,47.6,8.683,ZH08
67898ed6-60e9-45b2-8c7a-03888d607e11,Alten,8453,33,ZH,47.599,8.647,ZH08
2c1ef243-48f3-445d-a72d-69b6f1ffe404,Oerlingen,8461,33,ZH,47.624,8.676,ZH08
c6537a73-b900-45fa-ad28-cf64d3f1ef96,Nohl,8212,34,ZH,47.67,8.608,ZH08
d1beb8b5-faa1-45b3-879c-7deb8469eebf,Uhwiesen,8248,34,ZH,47.671,8.634,ZH08
5f30dcf8-7aa5-4e4f-8004-db39b516b360,Marthalen,8460,35,ZH,47.625,8.648,ZH08
cf1aaac0-5f56-4217-854b-4d08630ab3c7,"Ellikon am Rhein",8464,35,ZH,47.605,8.597,ZH08
d767f076-6424-46d2-8903-6261040fa974,Oberstammheim,8477,36,ZH,47.634,8.801,ZH08
c91a696d-e1c8-4b51-b5f5-f4409737eeba,Ossingen,8475,37,ZH,47.61,8.726,ZH08
e86a8129-c309-4a99-86c7-691ef686e3ef,Rheinau,8462,38,ZH,47.644,8.603,ZH08
bad723b4-8d75-4b79-afd8-9ae3fed8cd7f,"Thalheim an der Thur",8478,39,ZH,47.579,8.754,ZH08
fdae4040-e9d1-4abe-bcd8-d6796d4664c3,Rudolfingen,8465,40,ZH,47.64,8.673,ZH08
8c4bceaf-ecd0-4c37-b742-562474b86a24,Wildensbuch,8465,40,ZH,47.651,8.679,ZH08
e550b9e3-d990-4471-81dc-c1a7ac370840,Trüllikon,8466,40,ZH,47.637,8.692,ZH08
706a7c39-3d45-4af8-a2e4-d4cff510b3f2,Truttikon,8467,41,ZH,47.63,8.727,ZH08
2f901706-250d-4d02-8535-33f652f975e3,Unterstammheim,8476,42,ZH,47.641,8.792,ZH08
5fa556fe-9503-4dd7-b44b-231a7db78de6,Volken,8459,43,ZH,47.573,8.629,ZH08
712f6f06-ecb5-42b0-a73c-d546202d35e2,Waltalingen,8468,44,ZH,47.622,8.773,ZH08
c193df56-075f-4a73-b433-0b3eac6f69ff,Guntalingen,8468,44,ZH,47.634,8.766,ZH08
4e4888d1-79e4-45d4-a5d2-f9724c09451c,Bachenbülach,8184,51,ZH,47.504,8.546,ZH07
e31c5892-55f9-46a4-99e9-39365bbab13c,Bassersdorf,8303,52,ZH,47.444,8.628,ZH07
82379eb9-3919-48fe-a946-2eadbd027ea4,Bülach,8180,53,ZH,47.517,8.541,ZH07
32964c91-3ff4-4f3d-9990-fb4c91a26b71,Dietlikon,8305,54,ZH,47.426,8.616,ZH07
19036d2b-2cf9-4d3f-9d0d-964005d00eea,Eglisau,8193,55,ZH,47.575,8.526,ZH07
84e2c490-4c37-4ef2-9020-ef35d3632bf9,Embrach,8424,56,ZH,47.501,8.595,ZH07
dde889f0-87d9-41c4-ae3c-6da0a704cf62,Freienstein,8427,57,ZH,47.533,8.591,ZH07
3a24f43e-912b-424c-8d21-e27673a7131b,"Teufen ZH",8428,57,ZH,47.55,8.567,ZH07
7bb0e123-01f7-4675-be6b-1c03aaf27dc7,Glattfelden,8192,58,ZH,47.559,8.499,ZH07
31296617-640b-47e3-8339-73a84613a342,Zweidlen,8192,58,ZH,47.561,8.467,ZH07
cb7b62cd-e1a7-4f47-8634-3e9df9281030,Hochfelden,8182,59,ZH,47.523,8.515,ZH07
bcab6cdd-6f15-40ea-aafa-5db6ba3bfee9,Höri,8181,60,ZH,47.507,8.508,ZH07
a1686103-8e7a-4a4b-a20e-64e2bc003473,Hüntwangen,8194,61,ZH,47.595,8.493,ZH07
3c24fb70-9c52-46c5-81dc-19f968c27b3a,Kloten,8302,62,ZH,47.453,8.584,ZH07
61da2050-685b-4c0e-a61e-040b9725fbaf,Lufingen,8426,63,ZH,47.49,8.594,ZH07
11bb10d1-192a-4b12-acc5-d8f510f1c064,Nürensdorf,8309,64,ZH,47.448,8.649,ZH07
e8d57c27-4bbc-4924-a31f-0141b5a3a4cb,Oberembrach,8425,65,ZH,47.487,8.617,ZH07
21de0fc1-193b-4e3a-9530-4e1943537e28,Glattbrugg,8152,66,ZH,47.434,8.566,ZH07
ba9a0832-ae3e-4dc3-8b16-8b5a708374c3,Opfikon,8152,66,ZH,47.431,8.582,ZH07
61d5681d-a6e1-4d17-979e-1220c79486e7,"Glattpark (Opfikon)",8152,66,ZH,47.424,8.563,ZH07
3b753ecf-42aa-407b-958a-21846cea7d2f,Rafz,8197,67,ZH,47.614,8.535,ZH07
95817cdb-7f23-433c-ba8c-984e201496a8,Rorbas,8427,68,ZH,47.529,8.578,ZH07
908fbb51-a119-4ca5-a1fd-64ba285f0faf,Wallisellen,8304,69,ZH,47.413,8.592,ZH07
19da2314-581b-453d-84e2-6f463cd6d32e,Wasterkingen,8195,70,ZH,47.59,8.473,ZH07
5b60c4b2-8eca-491c-94e6-9709eea7fcdb,"Wil ZH",8196,71,ZH,47.603,8.503,ZH07
275405e4-7820-45e2-b5c8-0813570f9329,Winkel,8185,72,ZH,47.493,8.554,ZH07
92f33c21-73c8-4f03-ab5d-ad6e6a171779,Bachs,8164,81,ZH,47.525,8.439,ZH06
f9063892-b4b5-4e91-97a9-673cd378ed9b,Boppelsen,8113,82,ZH,47.471,8.403,ZH06
67af00a7-8961-4917-9ec6-36e6e291383b,"Buchs ZH",8107,83,ZH,47.459,8.438,ZH06
10f30aae-5e72-4877-b4f7-1209d853f09f,Dällikon,8108,84,ZH,47.44,8.439,ZH06
5b599cf9-49b4-42d1-acff-cdb1de59a39d,"Dänikon ZH",8114,85,ZH,47.446,8.405,ZH06
f750c3fd-001a-4f72-a17a-8bc593e4a134,Dielsdorf,8157,86,ZH,47.476,8.448,ZH06
5d2e7e80-0e86-475d-b1dc-503e8143261d,Hüttikon,8115,87,ZH,47.446,8.387,ZH06
c3d5f8b8-c821-4491-a8b7-ea0cfc512dd5,Neerach,8173,88,ZH,47.513,8.475,ZH06
000f4ea9-828f-40d1-a10d-616cd9652a38,"Niederglatt ZH",8172,89,ZH,47.487,8.504,ZH06
3ec105b3-9c27-4b7f-8129-fb4a09d9413c,Niederhasli,8155,90,ZH,47.482,8.484,ZH06
1212880e-f9a1-4678-a1f3-4c09edd1cbae,Nassenwil,8155,90,ZH,47.466,8.471,ZH06
cb4a47f3-4c3c-44f2-a9e1-15594e0dd467,Oberhasli,8156,90,ZH,47.465,8.498,ZH06
7f1fc708-7bef-412e-bb4e-0c53a82c7923,Niederweningen,8166,91,ZH,47.504,8.369,ZH06
bc08c2d3-cbe9-4e97-834d-86420a2f9860,"Oberglatt ZH",8154,92,ZH,47.477,8.521,ZH06
c4217759-2c16-48ae-a400-34502721199a,Oberweningen,8165,93,ZH,47.504,8.407,ZH06
622170e7-d62d-4195-95e7-e7175f9babab,Otelfingen,8112,94,ZH,47.462,8.387,ZH06
838a99a5-e58e-44d9-b018-ec3c42d3d986,Regensberg,8158,95,ZH,47.483,8.439,ZH06
ab48858f-24fc-4add-b1d5-721578fb84f1,Regensdorf,8105,96,ZH,47.432,8.466,ZH06
8baa3ae4-04f4-46e0-94f9-7d4e06ba1367,Watt,8105,96,ZH,47.443,8.481,ZH06
726b181c-55a0-4781-ba0e-81bb672decef,"Adlikon b. Regensdorf",8106,96,ZH,47.45,8.464,ZH06
a15669af-88ae-4a92-a422-de83a82c1381,Rümlang,8153,97,ZH,47.452,8.533,ZH06
8d74cffd-63d3-47ae-8789-556f052791f9,Schleinikon,8165,98,ZH,47.498,8.392,ZH06
b89f5456-630e-4987-8e6d-c365164849f3,Schöfflisdorf,8165,99,ZH,47.5,8.417,ZH06
63c81612-2923-4912-91a2-957952f0cc21,"Stadel b. Niederglatt",8174,100,ZH,47.527,8.466,ZH06
144215c9-7502-4926-b983-170d53639b1f,Windlach,8175,100,ZH,47.541,8.478,ZH06
3db69eab-c703-47f0-970a-9bc53979ee4c,Steinmaur,8162,101,ZH,47.499,8.456,ZH06
ed02a59c-2ea9-4aab-89a1-69faff3cf3e9,Sünikon,8162,101,ZH,47.491,8.436,ZH06
941a9ae8-f7f4-4334-906c-12c3b20dba3e,Weiach,8187,102,ZH,47.554,8.436,ZH06
451ad48b-51b9-4045-9aca-07f05598ce31,Bäretswil,8344,111,ZH,47.338,8.856,ZH11
8c9e679f-cbe7-46ec-8b6f-b7bc087dc05d,Adetswil,8345,111,ZH,47.341,8.84,ZH11
a829a1f4-c817-4113-8e96-16ebab30a858,Bubikon,8608,112,ZH,47.269,8.817,ZH11
9245d36a-e095-4444-81f6-008478266d54,Wolfhausen,8633,112,ZH,47.257,8.8,ZH11
a2397b52-4114-4ce4-bcba-8dfff8162021,Tann,8632,113,ZH,47.264,8.852,ZH11
23b20edc-cfd9-40d0-a4c0-36f012e4ff1f,Dürnten,8635,113,ZH,47.278,8.843,ZH11
1447b077-fb95-4d83-aabd-dcf31332dba8,"Steg im Tösstal",8496,114,ZH,47.354,8.932,ZH11
bc4939a5-1876-4e35-a2a8-c5e8b10c99c9,Fischenthal,8497,114,ZH,47.331,8.919,ZH11
4c60481e-7d4a-4477-bdc7-e237d0e91c79,Gibswil,8498,114,ZH,47.314,8.915,ZH11
612fc238-90bb-4274-a647-91aaf71ce8f0,"Bertschikon (Gossau ZH)",8614,115,ZH,47.321,8.757,ZH11
402c67cd-c0bf-4b4f-88e8-f7fc79f827ac,"Grüt (Gossau ZH)",8624,115,ZH,47.311,8.782,ZH11
4d35779f-f44b-4aff-ab19-1126c53688d4,"Gossau ZH",8625,115,ZH,47.301,8.763,ZH11
0e64fb20-7988-4ab1-81aa-459b07140e80,"Ottikon (Gossau ZH)",8626,115,ZH,47.296,8.779,ZH11
eacfdb44-32a1-427d-88e8-91b289535b0d,Grüningen,8627,116,ZH,47.285,8.762,ZH11
b6790183-b138-44f2-b75e-93110b4caf66,Hinwil,8340,117,ZH,47.301,8.847,ZH11
3dd65561-d741-433f-8c2e-f16b739e528b,Wernetshausen,8342,117,ZH,47.299,8.866,ZH11
817a4c0c-7b8f-4494-9207-78a1dae6daa9,"Rüti ZH",8630,118,ZH,47.259,8.849,ZH11
8214f8e9-4247-4090-9c63-b668d4a27890,Aathal-Seegräben,8607,119,ZH,47.339,8.77,ZH11
1cda093c-41f7-450d-955d-6e9cb15dea7a,"Wald ZH",8636,120,ZH,47.277,8.916,ZH11
d6c21003-cb55-40a9-95ae-0bcf44017e1f,"Laupen ZH",8637,120,ZH,47.267,8.932,ZH11
a9d83165-379c-4629-9ff0-7a0fbd711b1e,"Wetzikon ZH",8620,121,ZH,47.322,8.806,ZH11
16adc431-fb9a-4c38-bd82-5a7fdbdde433,"Wetzikon ZH",8623,121,ZH,47.333,8.817,ZH11
2bde6845-0a20-4e7d-a854-6fbed1d5ff6e,Adliswil,8134,131,ZH,47.313,8.522,ZH03
35624fc2-af2f-49d7-846d-2facf94a19b8,Hirzel,8816,132,ZH,47.217,8.607,ZH03
215f5147-2213-46d8-b1f0-e4ffcbc93072,"Sihlbrugg Station",8135,133,ZH,47.243,8.575,ZH03
717dcb26-3709-4c33-9603-b4d48a567f15,Sihlwald,8135,133,ZH,47.268,8.558,ZH03
08e4b4bc-53d7-41d0-82ac-ac27e4207618,Horgen,8810,133,ZH,47.26,8.597,ZH03
5a37f839-584e-4897-9261-74991afaf6d7,Horgenberg,8815,133,ZH,47.248,8.584,ZH03
f621a660-0118-4047-9c16-6e4faaa19315,Hütten,8825,134,ZH,47.176,8.669,ZH03
b9ac3201-128c-4253-9edc-87dea473a3e2,"Kilchberg ZH",8802,135,ZH,47.32,8.543,ZH03
0c1de4b2-e6cc-445e-a75b-78c5c65efa18,"Langnau am Albis",8135,136,ZH,47.288,8.535,ZH03
b655fb17-4c15-4335-a2ef-eddcc21f3ed9,Oberrieden,8942,137,ZH,47.277,8.577,ZH03
57761c7b-063f-4feb-aa5b-998f0c21db09,Richterswil,8805,138,ZH,47.208,8.701,ZH03
2680880e-acce-4611-8657-620af70416a7,Samstagern,8833,138,ZH,47.191,8.682,ZH03
7b5f1f05-fc93-467c-ad8e-46725e3bb774,Rüschlikon,8803,139,ZH,47.309,8.555,ZH03
4c52aa1e-307c-4d03-a106-9a1bd9745f25,"Schönenberg ZH",8824,140,ZH,47.193,8.645,ZH03
723989ba-714e-45d1-b3d4-cc2f49dc1cda,Gattikon,8136,141,ZH,47.285,8.551,ZH03
16315ece-1f47-416a-a17d-a7a4449c2559,Thalwil,8800,141,ZH,47.29,8.569,ZH03
af145bd6-0dbe-48d5-92b7-1d25057ab116,"Au ZH",8804,142,ZH,47.248,8.646,ZH03
5683f928-86c2-43f5-a7ac-2d807e0448b6,Wädenswil,8820,142,ZH,47.228,8.672,ZH03
19c0fe14-c888-4b7d-a839-5714ff627f39,"Erlenbach ZH",8703,151,ZH,47.302,8.592,ZH04
29be4162-64d6-45dc-8109-6d0d4f340e39,Herrliberg,8704,152,ZH,47.285,8.617,ZH04
37f53e5e-53b5-4676-a6a0-f8d2c0ea4684,Hombrechtikon,8634,153,ZH,47.253,8.764,ZH04
c68433c4-5c47-4308-9a2c-fa233012b677,Feldbach,8714,153,ZH,47.239,8.782,ZH04
e270098d-e8a9-4824-9a43-36d1f857cbcf,Forch,8127,154,ZH,47.325,8.648,ZH04
eec7afb1-d3cd-472b-ad85-bc70985d42b4,"Küsnacht ZH",8700,154,ZH,47.317,8.584,ZH04
c3845c05-05a2-4243-a057-2bccedd2e73a,Männedorf,8708,155,ZH,47.255,8.694,ZH04
434486b7-e5d9-43f1-aa33-18f303e5cbd1,Meilen,8706,156,ZH,47.268,8.64,ZH04
4ccfdb16-9468-48fa-bbd7-4a19b59f03af,"Oetwil am See",8618,157,ZH,47.27,8.723,ZH04
7ac58f45-2f4b-4f00-b34e-98924a91c8ab,Stäfa,8712,158,ZH,47.239,8.731,ZH04
b97874cf-478d-482c-aa2a-9319f43b6fad,Uerikon,8713,158,ZH,47.235,8.757,ZH04
7c54af9c-16a7-4d65-9675-3e0413695405,"Uetikon am See",8707,159,ZH,47.262,8.677,ZH04
7c35e2eb-0f5e-4725-84bd-0e18166097f4,Zumikon,8126,160,ZH,47.331,8.623,ZH04
f31e90c1-568a-4e5a-aae2-0360d97ed875,Zollikerberg,8125,161,ZH,47.348,8.602,ZH04
19bd6910-a1e9-424c-8007-eea2af65cb93,Zollikon,8702,161,ZH,47.338,8.574,ZH04
f5d63f9b-4377-4418-9e70-4e3cee1f2798,Fehraltorf,8320,172,ZH,47.387,8.752,ZH10
f3523dc7-2c1d-4af7-a051-28b1e323885f,Hittnau,8335,173,ZH,47.361,8.824,ZH10
c17d8ec1-4130-4ff6-9812-0a777ed45ee8,Kemptthal,8310,176,ZH,47.453,8.706,ZH10
7f7cd04b-4cfc-46ee-83f7-032ff482a499,Grafstal,8310,176,ZH,47.444,8.698,ZH10
152d2cc1-1fc2-42f2-9b4d-3d09bf67b9f6,"Winterberg ZH",8312,176,ZH,47.457,8.692,ZH10
4e3a41e1-c67f-4f35-a9df-b2cf790f798d,Lindau,8315,176,ZH,47.442,8.671,ZH10
e349e05d-9925-4744-b4f8-5cce84ff637b,Tagelswangen,8317,176,ZH,47.43,8.672,ZH10
4460bfe9-4c4e-4199-add3-7f8076ceb769,"Pfäffikon ZH",8330,177,ZH,47.365,8.781,ZH10
2203798b-b9ab-4ab0-984e-d86a62cbbb2b,Auslikon,8331,177,ZH,47.346,8.807,ZH10
c0b1b1c0-6d90-48f2-9c09-fe20d07ad775,Madetswil,8322,178,ZH,47.41,8.791,ZH10
9fd89278-2f69-418f-a40b-dc0d6fc6668b,Gündisau,8322,178,ZH,47.398,8.807,ZH10
108f0e10-2634-49e5-8ae8-cf42c1b0556a,Russikon,8332,178,ZH,47.396,8.774,ZH10
9919d8e6-401e-46be-a2bf-79bd3da2bdf9,Rumlikon,8332,178,ZH,47.409,8.76,ZH10
2e4071ae-5879-4cf7-a275-2879ce0a0614,Weisslingen,8484,180,ZH,47.433,8.765,ZH10
0111b09a-e944-42cc-abec-d2c4bac8544f,Neschwil,8484,180,ZH,47.43,8.788,ZH10
3fede0f1-6614-495d-a8df-d30b9b026441,Theilingen,8484,180,ZH,47.421,8.768,ZH10
55d9b9b5-6b8e-4296-a61e-f4c761727bfa,Wila,8492,181,ZH,47.419,8.846,ZH10
e24de901-8635-4dbc-abc9-e051b805d2fc,Wildberg,8489,182,ZH,47.428,8.817,ZH10
61d7a854-3697-4dd4-bfe6-851f149595bf,Schalchen,8489,182,ZH,47.407,8.826,ZH10
17073da9-5f89-448c-85f6-874bdd92455a,Ehrikon,8489,182,ZH,47.419,8.809,ZH10
3112de3d-0899-4fbd-8eb3-bcd962cf4287,Gockhausen,8044,191,ZH,47.383,8.602,ZH02
39f0707a-e8c3-4925-8954-bb38b57ee9bf,Dübendorf,8600,191,ZH,47.395,8.618,ZH02
ca9bff5c-9c6d-4bb6-82c5-05b9d37a3b8d,"Egg b. Zürich",8132,192,ZH,47.301,8.691,ZH02
fe750626-6e7f-4318-83fc-25ba114eb4b5,Hinteregg,8132,192,ZH,47.306,8.684,ZH02
3b1bec73-657d-4d12-9c62-3313eb22b2d1,Esslingen,8133,192,ZH,47.288,8.71,ZH02
77816d1e-1b8e-43df-ba5a-a808c65b920d,Fällanden,8117,193,ZH,47.371,8.638,ZH02
67a5c4ea-78ca-4a7a-b548-5ac10107e180,Pfaffhausen,8118,193,ZH,47.366,8.623,ZH02
dee7c48f-b9ec-4b8a-9273-05a7ebbe6e14,Benglen,8121,193,ZH,47.361,8.637,ZH02
46c013fe-c5f5-4a49-981a-8232c7642b50,Greifensee,8606,194,ZH,47.365,8.677,ZH02
40e73ac3-e26c-435e-8c4c-0a5977c93c13,Binz,8122,195,ZH,47.357,8.627,ZH02
7620f3b9-00df-4d12-a157-85fcc2a8a834,Ebmatingen,8123,195,ZH,47.351,8.64,ZH02
0198dfbc-b823-40de-adf7-89ce4d87c566,Maur,8124,195,ZH,47.338,8.673,ZH02
4bbe16a7-3644-42ff-91d1-edd404d46fa1,Mönchaltorf,8617,196,ZH,47.31,8.722,ZH02
1c5d5b32-34a2-4228-8297-4410b37a2eaa,Schwerzenbach,8603,197,ZH,47.38,8.652,ZH02
32aa5df8-c032-475a-b152-b349c8e10502,Nänikon,8606,198,ZH,47.37,8.693,ZH02
a23b6e70-c9ea-480b-b1bd-69f3b33f3af4,Uster,8610,198,ZH,47.346,8.717,ZH02
ea217286-4fe2-44a6-9da4-28e1c2c1eddc,Sulzbach,8614,198,ZH,47.329,8.747,ZH02
8a831386-25f2-4997-a1cc-002b5639c3da,Wermatswil,8615,198,ZH,47.362,8.746,ZH02
4aeca43d-7b6b-4dcf-a43b-f395e090b8f5,Freudwil,8615,198,ZH,47.375,8.734,ZH02
877ef291-92a7-4f8a-b0f0-f30841a624b5,Riedikon,8616,198,ZH,47.333,8.712,ZH02
6177ffa4-a4cb-4c8d-81ce-f9779495c3d3,Volketswil,8604,199,ZH,47.389,8.691,ZH02
e38ae69f-689e-40cd-b459-9be5e8d19c55,Gutenswil,8605,199,ZH,47.385,8.718,ZH02
5e4ef8ed-4564-45f3-9a3a-144ca2d45bff,Brüttisellen,8306,200,ZH,47.423,8.63,ZH02
db79bca6-e661-48d2-8099-7384c089b970,"Wangen b. Dübendorf",8602,200,ZH,47.409,8.646,ZH02
5a5e8925-0926-419b-9957-b126b99c9213,Altikon,8479,211,ZH,47.575,8.785,ZH09
a690ec12-7038-40e1-8f4d-8255c1368338,Brütten,8311,213,ZH,47.474,8.674,ZH09
bef44121-5123-4000-be14-4c5a42c0c226,"Rutschwil (Dägerlen)",8471,214,ZH,47.558,8.733,ZH09
56b9956e-dff5-47ea-9ca6-ec6ad006b394,Dägerlen,8471,214,ZH,47.561,8.719,ZH09
a55bb27e-6a4b-4840-9f5e-d927b082f1c1,"Oberwil (Dägerlen)",8471,214,ZH,47.573,8.717,ZH09
6d8d87df-ed43-496c-b075-987d1defad68,"Berg (Dägerlen)",8471,214,ZH,47.564,8.733,ZH09
66d8f95d-5079-47be-be52-8459eaf793ee,"Bänk (Dägerlen)",8471,214,ZH,47.549,8.741,ZH09
5f6431a0-62cd-4bc4-a620-7fcb5407c7a0,Dättlikon,8421,215,ZH,47.525,8.624,ZH09
332f8d0c-70be-4113-bfc7-30c8e0b4f9ee,Dinhard,8474,216,ZH,47.555,8.768,ZH09
d6be192b-b05c-4337-a4f6-8921d4de8ecd,Elgg,8353,217,ZH,47.49,8.868,ZH09
38a5f4f8-3f6b-4ad8-bd03-68a4d196613f,"Ellikon an der Thur",8548,218,ZH,47.562,8.825,ZH09
755f72c6-5269-478b-89c9-5b3c20b4237a,Elsau,8352,219,ZH,47.506,8.803,ZH09
8f061af7-f2e1-4cbb-98a2-4fc336855438,"Hagenbuch ZH",8523,220,ZH,47.521,8.888,ZH09
76175a7f-0d9d-4e1f-86d0-cbf9946f6355,Hettlingen,8442,221,ZH,47.548,8.708,ZH09
fc9ec08d-29da-4fa9-ae63-ad27cf4e70e2,"Hofstetten ZH",8354,222,ZH,47.473,8.854,ZH09
36d6e689-6a85-4c32-ac0c-cd8b01d909e5,"Aesch (Neftenbach)",8412,223,ZH,47.541,8.679,ZH09
98d110c4-a8ce-4a0f-8754-97caab6dfd62,"Riet (Neftenbach)",8412,223,ZH,47.536,8.687,ZH09
50463b85-c79b-472a-b1f5-9fdee4eadc81,"Hünikon (Neftenbach)",8412,223,ZH,47.552,8.668,ZH09
21beded1-7813-44e1-bd4d-2059f5aa6b81,Neftenbach,8413,223,ZH,47.529,8.668,ZH09
9f318a39-81ed-4abc-8b27-18a7bd36d9bd,Pfungen,8422,224,ZH,47.516,8.647,ZH09
b156b71b-a5fa-4b85-9989-f54febe64e0d,"Rickenbach ZH",8545,225,ZH,47.551,8.794,ZH09
87658611-4e15-42f0-b547-94f59eec3a2a,"Rickenbach Sulz",8545,225,ZH,47.542,8.783,ZH09
fb055e15-85d7-4af5-abc2-3f0547002f4b,"Schlatt ZH",8418,226,ZH,47.468,8.826,ZH09
acef7575-0d6b-464b-a2a9-a6a64318a28e,Seuzach,8472,227,ZH,47.536,8.738,ZH09
6a213636-71b8-4ac9-bc64-a93e066d9eed,Turbenthal,8488,228,ZH,47.435,8.847,ZH09
1222ba47-480b-4237-9461-182a7753dde6,Schmidrüti,8495,228,ZH,47.415,8.903,ZH09
82255a6d-333c-4f35-bc6b-7f02173d2b7d,"Ricketwil (Winterthur)",8352,230,ZH,47.487,8.801,ZH09
87844621-2a6c-4f1b-97da-e6f59291e4a8,Winterthur,8400,230,ZH,47.492,8.73,ZH09
b49906eb-0318-4ca7-ae94-c74d1fec2398,Winterthur,8404,230,ZH,47.507,8.759,ZH09
b6d160ea-afb6-445f-8c82-5f7a551f22ab,"Reutlingen (Winterthur)",8404,230,ZH,47.528,8.751,ZH09
77986c2b-b89e-4524-87ed-a6207fe48f84,"Stadel (Winterthur)",8404,230,ZH,47.535,8.765,ZH09
a5dc88eb-8783-421e-9c82-eced3b34e7d2,Winterthur,8405,230,ZH,47.478,8.778,ZH09
147444c6-a3ad-40e0-95d4-6397c9ee7420,Winterthur,8406,230,ZH,47.483,8.701,ZH09
21aa0359-a20e-4287-aebf-9e7c003097b4,Winterthur,8408,230,ZH,47.508,8.683,ZH09
f31f2af9-b6a9-4a51-b4f7-fe52322a42d1,Winterthur,8409,230,ZH,47.51,8.781,ZH09
794a4322-3d27-4c6d-8263-1bd24c9e89e6,"Sennhof (Winterthur)",8482,230,ZH,47.469,8.758,ZH09
f762bab1-bb27-4aba-a4b0-76c70e315e7d,Kollbrunn,8483,231,ZH,47.457,8.777,ZH09
9316f4c0-7fc3-49f1-836a-b9dc61215572,"Rikon im Tösstal",8486,231,ZH,47.445,8.797,ZH09
4d6af6e1-a8f5-4064-8351-73fce5c02b8f,"Zell ZH",8487,231,ZH,47.449,8.823,ZH09
2fae92b8-92f1-416b-94aa-c4934fc0e096,Rämismühle,8487,231,ZH,47.442,8.819,ZH09
4f260f9b-5921-49b8-863a-8c56ffc4a0e3,"Aesch ZH",8904,241,ZH,47.337,8.438,ZH01
20d47d2d-168c-465b-9a3e-31f13db954ba,"Birmensdorf ZH",8903,242,ZH,47.352,8.441,ZH01
25cc59ba-fe5e-48d5-9ca2-ce72ba23ed3d,Dietikon,8953,243,ZH,47.405,8.404,ZH01
a270ea4a-9133-4f00-8eb0-ecdab29f042b,Fahrweid,8951,244,ZH,47.41,8.415,ZH01
d304ac9c-ad89-4ab1-8d4c-007de3ec9eba,Geroldswil,8954,244,ZH,47.422,8.41,ZH01
eb8d07d8-8e34-42de-92f9-7e9612719254,Oberengstringen,8102,245,ZH,47.408,8.462,ZH01
5b503db0-9d05-4617-b324-977f678876aa,"Oetwil an der Limmat",8955,246,ZH,47.428,8.395,ZH01
0a354394-3016-4e94-a3ad-f68c661030d8,Schlieren,8952,247,ZH,47.397,8.446,ZH01
d148b19e-4655-4d8c-ad2c-4a6b35d2f68c,"Uitikon Waldegg",8142,248,ZH,47.368,8.463,ZH01
907cbfa1-1472-451c-902c-309ca9622e52,Unterengstringen,8103,249,ZH,47.413,8.449,ZH01
e7d75a14-0514-483e-83fa-91e60168fed1,Urdorf,8902,250,ZH,47.383,8.424,ZH01
d93aa231-d169-4626-bedb-2ae65a0b77b1,"Weiningen ZH",8104,251,ZH,47.421,8.436,ZH01
5badb0af-fb82-4c0e-9576-53e743da5849,Zürich,8001,261,ZH,47.373,8.541,ZH12
9bc55620-c9e6-49a2-bfbd-48bf0d5e4f5e,Zürich,8002,261,ZH,47.361,8.531,ZH12
a46fcf61-8500-49ec-a923-9ba9f264e26f,Zürich,8003,261,ZH,47.373,8.516,ZH12
f06bc021-5458-4d12-8b32-1c8e4f6ec3c4,Zürich,8004,261,ZH,47.378,8.523,ZH12
0fbbc173-165c-4435-bbfe-311580d11741,Zürich,8005,261,ZH,47.387,8.521,ZH12
ee07fb4b-691f-4fb6-9082-e74f7c96c825,Zürich,8006,261,ZH,47.386,8.543,ZH12
63ddbefe-6ee3-4c39-bb1f-9a1935d7cbdc,Zürich,8008,261,ZH,47.356,8.563,ZH12
69876d64-bf61-46c5-b159-1ce4776891e6,Zürich,8032,261,ZH,47.367,8.564,ZH12
9baf8050-cbca-48d5-a305-61f70e1274a1,Zürich,8037,261,ZH,47.398,8.524,ZH12
279a9be4-4cf9-4298-834b-8ba69c74e629,Zürich,8038,261,ZH,47.341,8.532,ZH12
b7816875-8884-4e6d-86e5-5f71ba2ca3f5,Zürich,8041,261,ZH,47.336,8.516,ZH12
a978de53-97c6-46f1-a414-2e1a8d4a3361,Zürich,8044,261,ZH,47.38,8.573,ZH12
3c692ef9-bd0d-4f62-9044-68218f32bfa5,Zürich,8045,261,ZH,47.352,8.506,ZH12
18034645-49c8-41a9-9a07-ca748ac9770c,Zürich,8046,261,ZH,47.422,8.508,ZH12
e6181588-ccf3-4982-afa2-61cd4dcc5440,Zürich,8047,261,ZH,47.374,8.487,ZH12
03a0cbd3-84b5-482c-8251-e26b89239986,Zürich,8048,261,ZH,47.387,8.484,ZH12
1bd52536-12ce-4934-b1d9-9f9126c29761,Zürich,8049,261,ZH,47.409,8.5,ZH12
9d9fceee-80fe-4e33-af22-9cb259799218,Zürich,8050,261,ZH,47.412,8.551,ZH12
c56055ca-eefc-4316-8781-59c04905d0cb,Zürich,8051,261,ZH,47.4,8.579,ZH12
b2c54e24-0cbc-48b3-989b-902c0b85dcea,Zürich,8052,261,ZH,47.424,8.541,ZH12
1a3b8f2d-1b83-4ae3-a0c0-79dbe4f2bf43,Zürich,8053,261,ZH,47.361,8.597,ZH12
035a2b44-8b3a-4233-859a-ec104a6abf77,Zürich,8055,261,ZH,47.364,8.49,ZH12
a474ba7d-c8a6-4afc-94b6-8aea33e802ce,Zürich,8057,261,ZH,47.4,8.547,ZH12
9aa29d1e-7b2a-470b-b159-04b1e19b82bd,Zürich,8064,261,ZH,47.399,8.485,ZH12
6146061d-6a38-476d-96d3-29163d1f4da0,Effretikon,8307,296,ZH,47.428,8.689,ZH10
19b323eb-70d0-4e57-9096-b8f0df694929,"Ottikon b. Kemptthal",8307,296,ZH,47.435,8.717,ZH10
0a22f31a-36cd-45cc-9eac-f50855b05de5,Illnau,8308,296,ZH,47.409,8.723,ZH10
e47a5a5d-9e24-4515-915f-80e83bcc8c9a,Agasul,8308,296,ZH,47.425,8.743,ZH10
8d27ad02-6cc3-4cca-b3e3-3be7facdc768,Kyburg,8314,296,ZH,47.458,8.745,ZH10
9377d1d2-cfad-4adf-9085-429a01843870,Saland,8493,297,ZH,47.391,8.853,ZH10
46dcd5f3-c358-43d0-8d18-ef263b2574ec,Bauma,8494,297,ZH,47.367,8.877,ZH10
297bdf96-b22b-4b2e-965c-3f9e7ee31bd4,Sternenberg,8499,297,ZH,47.387,8.912,ZH10
b7479dc9-1faa-48a6-bd36-c683d6ac09e4,Wiesendangen,8542,298,ZH,47.521,8.79,ZH09
bb7b7f93-b7df-44b8-b375-fbbec041b24d,Bertschikon,8543,298,ZH,47.527,8.815,ZH09
3fab5d2c-2739-41e1-adb7-cb45c5fbf7d3,Gundetswil,8543,298,ZH,47.54,8.822,ZH09
9d9047a6-0134-42be-a8d8-87d7d69d1cc3,"Kefikon ZH",8543,298,ZH,47.549,8.831,ZH09
a30b427e-d3e3-4315-9f05-1b1769628785,Attikon,8544,298,ZH,47.536,8.798,ZH09
771206f4-b007-4e38-ae02-ff39c68d4984,Menzengrüt,8546,298,ZH,47.55,8.822,ZH09
95a99501-d1c5-4b38-a450-d50d93b1b993,Aarberg,3270,301,BE,47.044,7.275,BE08
cee737b1-c0a6-4b6e-bd54-cf3a6fe8bc4b,"Bargen BE",3282,302,BE,47.04,7.257,BE08
fe330b26-e322-48bc-bc1d-720f3bdab190,Grossaffoltern,3257,303,BE,47.066,7.366,BE08
d680896d-1ccf-4cd6-b555-91592e9ac0dd,"Ammerzwil BE",3257,303,BE,47.07,7.34,BE08
a1926098-bc7a-45af-a0e1-627c897467ec,Suberg,3262,303,BE,47.062,7.335,BE08
2d043636-01ef-4fc7-8aa5-bfd076a53568,Kallnach,3283,304,BE,47.018,7.23,BE08
5e1e6321-e650-4bc5-99f5-ec1a2083e97b,"Niederried b. Kallnach",3283,304,BE,47.011,7.252,BE08
fa03ec70-ee11-46f7-ab0e-9025711bd795,Kappelen,3273,305,BE,47.06,7.268,BE08
0b956fab-9e5a-4825-b689-a5ab1afaf174,Lyss,3250,306,BE,47.071,7.308,BE08
981d0476-4b54-4267-a32d-5767b28106ab,"Busswil BE",3292,306,BE,47.101,7.322,BE08
410490a2-dfb4-4db9-bd8e-a7b965f4e7d2,Ortschwaben,3042,307,BE,46.992,7.399,BE01
887b6aa0-ac8a-4f01-a959-61d8c76282af,Meikirch,3045,307,BE,47.009,7.363,BE01
debae3b9-0538-487b-93b1-9e7643241b8f,Wahlendorf,3046,307,BE,47.008,7.338,BE01
30e40bec-9597-4630-b04c-3e65197e74ee,Detligen,3036,309,BE,47.002,7.273,BE08
b958cf8b-0673-45c3-8edb-d2c9ac480fb9,"Radelfingen b. Aarberg",3271,309,BE,47.022,7.269,BE08
7bf7db3a-1f92-4e0b-8ecb-a9438d437716,Lätti,3053,310,BE,47.039,7.43,BE08
b7a15916-82b6-4edf-9be8-c35930d5757c,Ruppoldsried,3251,310,BE,47.089,7.426,BE08
2bed39dc-074c-414b-8f65-267ed794b637,"Rapperswil BE",3255,310,BE,47.062,7.405,BE08
aa9dd4d2-e228-4921-a82e-67ccf32baae3,Dieterswil,3256,310,BE,47.055,7.425,BE08
49cb5050-e735-4714-b30b-6dbd9dc3e985,"Bangerten b. Dieterswil",3256,310,BE,47.057,7.448,BE08
0a0f51c8-6208-4030-88cb-7ea803007ad6,Seewil,3256,310,BE,47.046,7.409,BE08
d79ba634-7199-43a2-be82-973d34a945a8,Schüpfen,3054,311,BE,47.038,7.377,BE08
f4c55f60-160d-49fa-be61-1eb994fcabba,Frieswil,3035,312,BE,46.995,7.285,BE08
99a2b3e2-fc97-42af-8a01-c7e24198f20c,"Wiler b. Seedorf",3266,312,BE,47.049,7.32,BE08
10a3d6f0-c4cd-4dcf-bfcb-1c38ed414d22,"Seedorf BE",3267,312,BE,47.034,7.311,BE08
3c5a27cf-8804-44fe-9132-c8af3d42b598,Lobsigen,3268,312,BE,47.027,7.294,BE08
920a531b-03f4-47f5-82aa-c8c64cdb7d40,Aarwangen,4912,321,BE,47.241,7.763,BE07
a6931b31-08bf-4873-9bd0-503d78f404ab,Auswil,4944,322,BE,47.135,7.833,BE07
f4d23fa9-d455-47de-81bd-98bfbc1aad7b,Bannwil,4913,323,BE,47.237,7.73,BE07
63dcdf20-46c4-4595-83f1-78fb1ef6190c,Bleienbach,3368,324,BE,47.183,7.761,BE07
9dbb0354-0b49-4ac9-b357-a97bb1af7bb4,"Busswil b. Melchnau",4917,325,BE,47.186,7.828,BE07
0e95a806-aa49-48ea-9770-c414c206d29c,Gondiswil,4955,326,BE,47.146,7.872,BE07
1d7f6886-8e9e-472b-b81e-c3af2c35c934,Langenthal,4900,329,BE,47.212,7.792,BE07
892757c7-9a03-46b4-a827-29a6ef369002,Untersteckholz,4916,329,BE,47.205,7.847,BE07
541354f2-885d-46d5-a4ad-9520e26500b0,Lotzwil,4932,331,BE,47.19,7.788,BE07
b24cc7d6-6474-4236-9337-cc6317494d5c,Gutenburg,4932,332,BE,47.182,7.796,BE07
80765d35-6133-466a-b651-1d052cb19016,Madiswil,4934,332,BE,47.167,7.799,BE07
5296fbd5-a59c-4a20-aff5-1f0339817aa4,Leimiswil,4935,332,BE,47.149,7.761,BE07
63ae7219-950f-4911-8d78-bd40eb4e31e7,Kleindietwil,4936,332,BE,47.146,7.791,BE07
1a991c08-b00f-4855-b54d-94ffa8aabcac,Melchnau,4917,333,BE,47.183,7.857,BE07
606d47e3-d3ba-44cc-a85b-24145209cd81,Obersteckholz,4924,334,BE,47.2,7.818,BE07
87c1ad75-c65a-46ee-b135-b1562926b239,Oeschenbach,4943,335,BE,47.102,7.747,BE07
eda6ac0b-a400-4002-b701-9eb3d643ebd5,Reisiswil,4919,336,BE,47.165,7.846,BE07
6cdd6b2b-35c0-4f75-bbfa-400ecb00e540,"Roggwil BE",4914,337,BE,47.24,7.822,BE07
f5997753-90b5-4747-8e69-c6e40fb49c7a,Rohrbach,4938,338,BE,47.133,7.812,BE07
86171926-bd28-4794-ba8f-c6ca82d27f98,Rohrbachgraben,4938,339,BE,47.121,7.8,BE07
6c67852f-2990-499a-be1e-5627cf300df6,Rütschelen,4933,340,BE,47.173,7.771,BE07
8fb9e922-4071-4bc8-9382-f342a23ce8e3,Schwarzhäusern,4911,341,BE,47.255,7.77,BE07
34a51112-55f6-4487-86cf-ccbbb282bd61,Bützberg,4922,342,BE,47.217,7.745,BE07
36b4c393-0bdc-441f-8ef7-a015d7303dcd,Thunstetten,4922,342,BE,47.202,7.752,BE07
537cec3a-86ba-405d-817d-44c12d54cfa7,Ursenbach,4937,344,BE,47.136,7.773,BE07
ebebe820-01f3-44fc-8597-4b0c8e6fc706,Wynau,4923,345,BE,47.259,7.815,BE07
d4ae9653-77f0-4e6c-ad83-25aa98ef3592,Bern,3004,351,BE,46.98,7.452,BE01
3b4341c1-5801-441b-bfa9-4ed9d4a995e0,Bern,3005,351,BE,46.939,7.45,BE01
b936164c-cd45-447c-8e11-e01ac7192a59,Bern,3006,351,BE,46.946,7.471,BE01
d986ab0d-cde7-4d72-97fe-42296dbc21cf,Bern,3007,351,BE,46.939,7.435,BE01
d5f09fb2-fc3b-4e09-b98c-b11d73adab4c,Bern,3008,351,BE,46.945,7.414,BE01
ce47be17-6af5-4898-a8ea-9096210e5e2b,Bern,3010,351,BE,46.947,7.424,BE01
032a8e62-eed1-4cea-b717-2828de0e4137,Bern,3011,351,BE,46.947,7.448,BE01
7c8c7d41-9e4b-411e-b234-d84c971fec9f,Bern,3012,351,BE,46.962,7.426,BE01
c3600577-9b7c-4357-b6d2-61dd6d1d1c84,Bern,3013,351,BE,46.956,7.446,BE01
50aea1ab-d403-469e-b3a8-9b2dc0da9a1f,Bern,3014,351,BE,46.962,7.458,BE01
20b1d7df-dfda-4ecc-9463-3b2ce08fc850,Bern,3015,351,BE,46.94,7.485,BE01
3876c743-0086-46e7-90b9-faafe6aeda52,Bern,3018,351,BE,46.934,7.389,BE01
6666af8f-a525-46d7-a23e-b91cb189457d,Bern,3019,351,BE,46.931,7.348,BE01
3cff828b-c86f-4359-bb84-5f9166901e1e,Bern,3020,351,BE,46.937,7.321,BE01
8c44e949-4fc7-4a35-8802-c905de9abc6b,Bern,3027,351,BE,46.956,7.387,BE01
d1e2741d-2e6e-4523-ac5b-7eb81f5d2b1e,Bolligen,3065,352,BE,46.975,7.496,BE01
5379eab6-1654-411d-89c6-f293bdd9d21b,"Bremgarten b. Bern",3047,353,BE,46.979,7.434,BE01
990581ba-29ac-4063-a604-be5715d46ed6,Herrenschwanden,3037,354,BE,46.977,7.417,BE01
eddd1668-9285-4dc3-886d-3feba0909811,Kirchlindach,3038,354,BE,47,7.414,BE01
d1426472-8907-4e85-afaf-8966b747690a,Wabern,3084,355,BE,46.929,7.45,BE01
3cb7ce7f-dfed-4f0f-82bd-44d2350270e9,"Spiegel b. Bern",3095,355,BE,46.926,7.433,BE01
b69303c9-70be-45d8-bdc1-b8a12fa0c4c7,Liebefeld,3097,355,BE,46.93,7.416,BE01
446b5cdc-27f8-461e-bbb3-f9a0cb7da0dd,Köniz,3098,355,BE,46.921,7.413,BE01
486ab21a-7eeb-4bda-9522-7e0a4da64b61,"Schliern b. Köniz",3098,355,BE,46.909,7.416,BE01
b2106a0e-9d89-4a01-8479-08d32a7e851c,Gasel,3144,355,BE,46.901,7.401,BE01
f148389f-7c2b-4e65-a1df-4b4aae71f896,Niederscherli,3145,355,BE,46.886,7.386,BE01
4396289c-40fd-46de-a59d-49d7b3bc50c9,Mittelhäusern,3147,355,BE,46.876,7.368,BE01
4dc56bd5-f3f0-4a01-a4fd-19c25486fbd3,"Niederwangen b. Bern",3172,355,BE,46.926,7.377,BE01
4597ddb8-eccf-45c3-87bb-b3feba1bb400,"Oberwangen b. Bern",3173,355,BE,46.916,7.361,BE01
743658f1-5c7a-4dd4-a120-11e5747dacdc,Thörishaus,3174,355,BE,46.894,7.352,BE01
f0b7dd8c-8283-4f16-add6-6c17e90c5ba2,Gümligen,3073,356,BE,46.935,7.509,BE01
85b59c95-86e1-4531-a1ad-d6e102c94755,"Muri b. Bern",3074,356,BE,46.928,7.488,BE01
878837ab-28fa-4eb7-ac2a-1ee406ca5aa3,Oberbalm,3096,357,BE,46.873,7.405,BE01
95322259-6e2b-4d5d-bff5-9b5e410eba1a,Stettlen,3066,358,BE,46.959,7.523,BE01
f9746050-3c8e-4582-841f-799fb507ffcc,Boll,3067,359,BE,46.954,7.548,BE01
6aa09293-004f-410a-b687-7d65ee831374,Utzigen,3068,359,BE,46.961,7.565,BE01
f24d842b-0d01-45ff-b5eb-3d01d444b3df,Hinterkappelen,3032,360,BE,46.968,7.377,BE01
0609e7bb-01e9-45a6-865d-4c33ff6c9476,"Wohlen b. Bern",3033,360,BE,46.971,7.356,BE01
96b8de26-d723-42fa-b1a9-c440e6277196,Murzelen,3034,360,BE,46.982,7.315,BE01
f5790488-7946-41f4-8c2e-3c209090ac2d,Uettligen,3043,360,BE,46.987,7.386,BE01
250850cb-7a82-42bf-b331-62ee4cb69efc,Innerberg,3044,360,BE,46.995,7.309,BE01
4919350d-e5bd-4c99-9f61-c3ca1f50826c,Säriswil,3049,360,BE,46.992,7.334,BE01
c6aaddff-bd4f-4113-a234-1dd07e02ec5e,Zollikofen,3052,361,BE,46.993,7.461,BE01
e319d51b-d00c-46a5-9866-86523fd84ae7,Worblaufen,3048,362,BE,46.979,7.458,BE01
c018c2f3-6eb6-49fc-9331-4dc1ea070b1c,Ittigen,3063,362,BE,46.975,7.48,BE01
e4db05e9-0941-466a-acd0-8b6d282ec5b6,Ostermundigen,3072,363,BE,46.958,7.498,BE01
643f5872-8498-4129-8dfc-4176ca6193f1,Biel/Bienne,2502,371,BE,47.142,7.246,BE08
277e9488-bc87-47f2-b407-d79eee7e514f,Biel/Bienne,2503,371,BE,47.131,7.253,BE08
2647f0df-66af-4f43-9494-dab102266875,Biel/Bienne,2504,371,BE,47.156,7.283,BE08
68bedb42-c4e0-4312-9c1a-1b6f799cd57e,Biel/Bienne,2505,371,BE,47.134,7.217,BE08
51c758d2-113f-4893-be0c-48df123a9a6a,Magglingen/Macolin,2532,372,BE,47.142,7.217,BE08
0f7cfb92-57e7-40a3-965b-7d0ba0394a2f,Evilard,2533,372,BE,47.15,7.24,BE08
a6e0a0d0-a8ed-4054-ae4f-64838067f8f0,Arch,3296,381,BE,47.164,7.428,BE08
d50455e4-da27-42aa-8c2b-94e8af07959d,Büetigen,3263,382,BE,47.107,7.341,BE08
6a501277-afb0-4850-b884-5a8ec4fa8089,"Büren an der Aare",3294,383,BE,47.137,7.371,BE08
4e320b6f-e18a-40d4-9e51-89e552f0ce28,"Diessbach b. Büren",3264,385,BE,47.107,7.366,BE08
7b855335-f8d0-4008-99aa-58a0c3bf08fc,Dotzigen,3293,386,BE,47.122,7.346,BE08
3bdafb93-3c9f-409a-8f4b-c93a11bf6255,"Lengnau BE",2543,387,BE,47.182,7.369,BE08
750947f9-be07-4d51-8f21-52c9af224580,Leuzigen,3297,388,BE,47.173,7.454,BE08
566a380b-18ae-4f4a-8d21-e97996fb8edc,Meienried,3294,389,BE,47.139,7.341,BE08
49304b76-ea0d-4a81-9318-32c438a1617c,Meinisberg,2554,390,BE,47.162,7.349,BE08
78033045-c942-4caf-bde7-a1be3ad63a26,"Oberwil b. Büren",3298,391,BE,47.127,7.409,BE08
cbf30dce-6039-48f9-bede-5bea3b7624c2,Pieterlen,2542,392,BE,47.174,7.328,BE08
2b5719c6-d7d2-4cde-8390-13cdfea06b78,"Rüti b. Büren",3295,393,BE,47.154,7.407,BE08
7c6d8426-4b2c-493e-831e-ef2462fb6582,"Wengi b. Büren",3251,394,BE,47.084,7.395,BE08
85f87e45-d283-45e2-9d1a-e8fd3a1609fa,Aefligen,3426,401,BE,47.096,7.552,BE06
c4ec9aab-6630-49c3-a1cd-74921225c13c,Alchenstorf,3473,402,BE,47.126,7.639,BE06
f1d41750-9dfc-4b4b-8a2f-c16e8967641f,"Bäriswil BE",3323,403,BE,47.017,7.534,BE06
5911d402-2726-45ef-94da-27b01680a0c8,Burgdorf,3400,404,BE,47.058,7.633,BE06
6144c8e8-90b9-4e67-9f23-58a233785021,Ersigen,3423,405,BE,47.096,7.593,BE06
2f258bfb-4f42-4b8e-9701-5a6acf5a8784,Niederösch,3424,405,BE,47.116,7.612,BE06
2b60ebb2-75fa-46b6-9b93-25dfaeb8cec2,Oberösch,3424,405,BE,47.11,7.608,BE06
54758705-6f7b-4cda-b548-efa7630c06db,"Hasle b. Burgdorf",3415,406,BE,47.016,7.647,BE06
d12752bf-b84e-435b-8e42-365d3e911e46,"Schafhausen im Emmental",3415,406,BE,46.995,7.656,BE06
4ff8ece1-822c-48b4-8e2e-6c7bf3df372e,"Biembach im Emmental",3419,406,BE,46.993,7.616,BE06
32e94c99-81e7-4d70-b59c-8a33093ce97e,Heimiswil,3412,407,BE,47.063,7.66,BE06
5e96c64e-05d9-4e0c-a5c4-40e9c4379cbf,Kaltacker,3413,407,BE,47.077,7.676,BE06
2343ae66-2329-4e8d-a013-0455752b5441,Hellsau,3429,408,BE,47.146,7.652,BE06
d05c02fd-f8d4-473b-bc6f-617fe5052beb,Hindelbank,3324,409,BE,47.042,7.54,BE06
d09f9591-c41f-4f5d-ba40-ffb4390d4dee,Höchstetten,3429,410,BE,47.145,7.631,BE06
dab43e52-2243-4411-a561-da84686beb92,Kernenried,3309,411,BE,47.07,7.55,BE06
74fe4b8a-32b9-434c-868b-d5d5171fdab4,"Kirchberg BE",3422,412,BE,47.083,7.593,BE06
c318274c-f48e-4497-8c26-5dfdae685280,Koppigen,3425,413,BE,47.133,7.596,BE06
b692ff73-f513-45a8-ac24-8d602848b6a7,"Hettiswil b. Hindelbank",3325,414,BE,47.029,7.554,BE06
88cc6b79-68a8-4991-a98c-e2a76f3d2ca7,Krauchthal,3326,414,BE,47.009,7.569,BE06
21100f27-1e64-4fc3-9d50-2a7d5c1b8b18,Lyssach,3421,415,BE,47.063,7.581,BE06
7ad94e5f-7ae2-4ed3-acd8-83f06e8f4f44,Mötschwil,3324,416,BE,47.049,7.567,BE06
796fc73d-44c1-4850-be32-81f1254e2ee7,Oberburg,3414,418,BE,47.039,7.62,BE06
7c9aeda1-5af4-409e-bc27-8344160ef744,Lyssach,3421,418,BE,47.049,7.593,BE06
559b8c28-0a9e-458a-a974-beab25c5a09c,Rüdtligen,3422,420,BE,47.086,7.566,BE06
b3fbf889-5110-4f5e-b948-6636f16f33a5,Alchenflüh,3422,420,BE,47.082,7.577,BE06
9c1b01d7-9a0d-45ad-aea7-83ffd33dad81,Rumendingen,3472,421,BE,47.106,7.639,BE06
c9866edf-6415-4b46-8bab-9509adcf4405,"Rüti b. Lyssach",3421,422,BE,47.057,7.577,BE06
3ad8c7ec-5a06-4654-a3c4-87bf1885565b,Willadingen,3425,423,BE,47.147,7.611,BE06
dfdfd3b6-4841-400a-b6a8-5f5008f4166b,Wynigen,3472,424,BE,47.106,7.667,BE06
3df0a82b-3b9f-4b8e-82ce-b3a649116605,Rüedisbach,3474,424,BE,47.118,7.704,BE06
83f9548e-4d71-4ddb-a60d-29b6717efe96,Corgémont,2606,431,BE,47.194,7.141,BE09
d60e263b-452b-4cea-88f9-93baa280c93d,Mont-Crosin,2610,432,BE,47.184,7.035,BE09
244e5bb6-7293-49e2-b253-37cfe69ea984,Cormoret,2612,432,BE,47.173,7.054,BE09
aa9ce55f-2b33-4278-a7b4-f597f971511b,Cortébert,2607,433,BE,47.192,7.107,BE09
2a880780-4219-45d7-bbf7-5e7bae876c13,Montagne-de-Courtelary,2608,433,BE,47.17,7.116,BE09
5892c94c-a792-4503-879c-09c720aa51a3,Courtelary,2608,434,BE,47.18,7.069,BE09
d6649cc1-2384-4bb9-8b1c-5f88c4e3b7bf,"La Ferrière",2333,435,BE,47.141,6.894,BE09
e31346ce-d447-40d0-9b36-531d5fb8ae3f,Mont-Tramelan,2723,437,BE,47.208,7.053,BE09
a637a38a-9a3b-4179-8797-771056cf99bf,Orvin,2534,438,BE,47.159,7.216,BE08
b7a98f4d-18cb-4578-bdeb-1953676acf13,"Les Prés-d'Orvin",2534,438,BE,47.154,7.174,BE08
90270a8f-0f49-4ac2-8b59-f96993ada936,"Renan BE",2616,441,BE,47.127,6.929,BE09
d32f3016-bda5-4cb8-b43c-f85eabcdd410,"Romont BE",2538,442,BE,47.189,7.34,BE08
22770640-b934-43b3-81bd-2c0b3472c8c9,"Le Cerneux-Veusil",2345,443,BE,47.18,6.963,BE09
7718c700-3a47-4b5a-8114-7701ca0fe277,St-Imier,2610,443,BE,47.153,6.997,BE09
b280d537-7766-4469-8589-e831f008b880,Mont-Soleil,2610,443,BE,47.16,6.987,BE09
87560873-a749-4ff2-8d4e-bda7e41b9d0a,"Les Pontins",2610,443,BE,47.132,6.997,BE09
91ac6c79-4c7a-409c-a7c7-c0bb397f8c31,Sonceboz-Sombeval,2605,444,BE,47.195,7.169,BE09
a1004400-0e07-4ebd-9814-5a0e9d74a9d6,Sonvilier,2615,445,BE,47.14,6.964,BE09
657cb8c7-27b7-4827-a78f-f80397f1b65b,Montagne-de-Sonvilier,2615,445,BE,47.121,6.947,BE09
3cca7e49-2576-48aa-9a4e-d767ad75d14c,Tramelan,2720,446,BE,47.223,7.097,BE09
364f1457-e0e1-4b9a-868c-b577c674162f,"Les Reussilles",2722,446,BE,47.224,7.083,BE09
3598bfd4-3731-4180-a2bb-e2203b7f6b01,Villeret,2613,448,BE,47.156,7.017,BE09
ad23dbe0-14ca-4488-bc1e-f2119091ddf9,Frinvillier,2535,449,BE,47.17,7.257,BE08
27710976-84f1-4411-830a-e3e2f884f068,Plagne,2536,449,BE,47.188,7.287,BE08
600544cd-e11d-4432-a955-35acba374b5d,Vauffelin,2537,449,BE,47.187,7.303,BE08
a62c0d63-df4b-4924-8675-ec7530925bfc,Péry,2603,450,BE,47.195,7.25,BE08
29b51911-76b5-4d65-a1e2-c3febeb94e89,"La Heutte",2604,450,BE,47.19,7.225,BE08
f59b1b0a-9dc8-4ce7-99e6-ab196848951a,Brüttelen,3237,491,BE,47.022,7.147,BE08
c0ad7c19-057e-4b2a-bf1f-04df28a4588b,Erlach,3235,492,BE,47.042,7.095,BE08
60d1dd82-45e5-44c3-b4ab-4416f265f284,Finsterhennen,2577,493,BE,47.026,7.178,BE08
16026ae2-030e-46fa-87a4-c4fc24b2986b,Gals,3238,494,BE,47.028,7.05,BE08
286cf0bb-bea6-4503-8cd6-35633b1072fc,Gampelen,3236,495,BE,47.015,7.059,BE08
34560ade-e212-4c8f-bf6e-320878eacf19,Ins,3232,496,BE,47.009,7.102,BE08
e3dc5f10-b149-4d69-807a-0d4360e354c2,Lüscherz,2576,497,BE,47.047,7.152,BE08
bf787552-dc06-43d4-8e0d-9a2c7e035007,Müntschemier,3225,498,BE,46.993,7.142,BE08
7cb60bf5-9211-4e14-bb5c-ce39392cd705,"Siselen BE",2577,499,BE,47.031,7.188,BE08
419d858d-f497-4920-9985-db0343913977,Treiten,3226,500,BE,47.009,7.161,BE08
46dd9a3a-d0b0-4651-a731-994faf7ade03,Tschugg,3233,501,BE,47.027,7.076,BE08
2539147c-0cb4-4544-9701-f800be4619f5,Vinelz,3234,502,BE,47.034,7.111,BE08
f5167a50-cb9d-4c49-8672-5cd4053891ec,Bätterkinden,3315,533,BE,47.129,7.54,BE01
3b921953-f276-460f-a50f-4e36fd567e65,Kräiligen,3315,533,BE,47.149,7.533,BE01
800ee40c-0b5e-4bc1-bd91-cecb6e86d6a9,"Deisswil b. Münchenbuchsee",3053,535,BE,47.037,7.454,BE01
3f1d682e-e298-4c6b-bf46-2bda42c1f6f9,Diemerswil,3053,536,BE,47.019,7.428,BE01
7f9d876f-6cc9-47e7-a2e1-eb255261dc28,Etzelkofen,3306,538,BE,47.084,7.481,BE01
18470cbe-cb27-4587-9833-d62597137835,Grafenried,3308,538,BE,47.077,7.515,BE01
b59ee876-9cfe-46bf-bd1f-59aafbf26518,Zauggenried,3309,538,BE,47.073,7.541,BE01
4e471320-05b2-481c-97d0-b356df1e381e,Fraubrunnen,3312,538,BE,47.084,7.517,BE01
606e03b3-c9c6-4294-be57-a671f3ea22b2,"Büren zum Hof",3313,538,BE,47.096,7.514,BE01
a965a1fa-32e3-485c-82db-6788df51341d,Schalunen,3314,538,BE,47.11,7.524,BE01
c35c3fb4-2f65-4501-8b5d-95100ee15259,Limpach,3317,538,BE,47.108,7.498,BE01
54a5c194-4c52-4089-a09e-4f4bb69c521c,Mülchi,3317,538,BE,47.102,7.474,BE01
3aedf4ed-aaa3-4d45-9e01-7f377864152a,Jegenstorf,3303,540,BE,47.05,7.507,BE01
f45cbb43-86cd-4ca2-8048-480563355938,Münchringen,3303,540,BE,47.046,7.522,BE01
668a584b-43b9-4f27-bfcc-33202a1b4238,Ballmoos,3303,540,BE,47.04,7.476,BE01
cf2d7ebe-726e-4c2f-a0e0-e75168638c72,Scheunen,3305,540,BE,47.07,7.455,BE01
fa4bf8ec-ac7e-40ba-9036-03737906cb1d,Iffwil,3305,541,BE,47.064,7.478,BE01
858f5e3b-9fdb-4bed-b7f8-6eeb18ee186f,Mattstetten,3322,543,BE,47.03,7.514,BE01
af280d2c-ef00-48ba-aba0-cf4b8b033d92,Moosseedorf,3302,544,BE,47.018,7.482,BE01
c078a7a2-1474-4a69-adf6-cd4624b9decb,Münchenbuchsee,3053,546,BE,47.022,7.446,BE01
cd9a9657-4475-4090-95a7-11a20ca95297,Urtenen-Schönbühl,3322,551,BE,47.026,7.5,BE01
571cff18-d524-4631-92a9-4044c583f74d,Utzenstorf,3427,552,BE,47.127,7.557,BE06
25a28b6d-f712-4163-80a8-59122b394ecc,Wiggiswil,3053,553,BE,47.031,7.471,BE01
8b20fcdb-341d-4380-8be9-a1c8b2ec0e5d,"Wiler b. Utzenstorf",3428,554,BE,47.152,7.556,BE06
8cddd391-b54b-454c-9857-b37375d69ab3,Zielebach,4564,556,BE,47.16,7.573,BE06
dc289a81-feb6-432e-b8ed-5f20b0813a0a,"Zuzwil BE",3303,557,BE,47.051,7.472,BE01
98d9ee39-84ad-4517-8216-8008be288258,Adelboden,3715,561,BE,46.493,7.559,BE02
1969b0ee-03c7-4483-a82a-22d7f1d0628c,"Aeschi b. Spiez",3703,562,BE,46.66,7.694,BE02
ff0c3a63-b164-439b-af9d-54610aab946d,Aeschiried,3703,562,BE,46.645,7.726,BE02
f38ff0d0-e7fa-4bc5-b63e-d567c222d208,Emdthal,3711,562,BE,46.654,7.685,BE02
7f38a200-cdd7-4bb5-9659-82b57806d4a0,Frutigen,3714,563,BE,46.588,7.643,BE02
296d8f83-e7e7-4779-888c-8ea46025f948,"Ried (Frutigen)",3724,563,BE,46.564,7.612,BE02
38430313-dbfa-49cd-98c2-d6e413d65430,Achseten,3725,563,BE,46.527,7.598,BE02
d185212a-040c-4fac-91cd-974cccd8f712,Kandergrund,3716,564,BE,46.546,7.663,BE02
0b61826f-8cce-4ee5-8df2-633f24e3ee22,Blausee-Mitholz,3717,564,BE,46.529,7.675,BE02
c30a5744-78d9-4657-999b-4ace5f511439,Kandersteg,3718,565,BE,46.498,7.669,BE02
3c0e19b5-b756-44f4-bf0a-2e0978addcdb,Krattigen,3704,566,BE,46.658,7.721,BE02
5c7b82ba-e89e-4993-99bd-8af627dfefa0,Mülenen,3711,567,BE,46.638,7.693,BE02
67f29179-0d09-4d7b-b966-3956d426ca92,"Reichenbach im Kandertal",3713,567,BE,46.626,7.694,BE02
0dba9b9a-5091-4e46-8ded-a3e4387415a9,"Wengi b. Frutigen",3714,567,BE,46.61,7.663,BE02
e8f547ac-9b53-4f51-9054-268467e89e91,Scharnachtal,3722,567,BE,46.615,7.698,BE02
0df7364c-262a-4784-a4ee-68e6b0dc3a6e,Kiental,3723,567,BE,46.589,7.724,BE02
17f4e39a-4f34-4fed-8770-b1a93ea1ff45,Sundlauenen,3800,571,BE,46.687,7.796,BE05
dea5c98f-60e7-4d74-83e5-5fc96003f2c7,Beatenberg,3803,571,BE,46.696,7.791,BE05
d2c1f84b-2611-4bb6-a08d-58ccba3a1c36,"Bönigen b. Interlaken",3806,572,BE,46.684,7.9,BE05
ff084a8d-9455-42ec-aee5-6583899f879f,"Brienz BE",3855,573,BE,46.756,8.024,BE05
8760d5a4-2e8d-4ad4-b74a-32c7ec3abb84,Axalp,3855,573,BE,46.721,8.038,BE05
eb2edd54-21e7-4ee5-bcf9-8348dbb6c0c3,Brienzwiler,3856,574,BE,46.75,8.099,BE05
67b6c8b6-9850-4d67-997d-6db76d8bd838,Därligen,3707,575,BE,46.662,7.808,BE05
0d1a0937-1197-451b-a4a8-bf7d70b08da7,Burglauenen,3816,576,BE,46.638,7.978,BE05
d0535308-e6c4-46ad-b581-c1018d2fb28d,Grindelwald,3818,576,BE,46.625,8.046,BE05
d9847c87-c16a-42ee-92a6-f4da46370363,Gsteigwiler,3814,577,BE,46.655,7.879,BE05
be1e7fa4-3051-4457-b8d4-6bc7a5bdc592,Interlaken,3800,578,BE,46.652,7.91,BE05
f3a0dd6b-fb36-4593-8215-47ca3a767b85,Zweilütschinen,3815,578,BE,46.633,7.9,BE05
7e728e0c-05ec-4da9-bb44-465d6a80ddc6,Gündlischwand,3815,578,BE,46.634,7.912,BE05
f327d049-0a35-4e58-9bfb-1f11c0c568c5,Habkern,3804,579,BE,46.725,7.863,BE05
2ef62f05-b36b-4abf-939c-b6d68b75312d,"Hofstetten b. Brienz",3858,580,BE,46.754,8.071,BE05
5d4e9ccf-93d8-4fca-8008-de967ce04d2f,Interlaken,3800,581,BE,46.687,7.863,BE05
995b4d6e-2588-42b9-99d5-342c3dde6a6c,Iseltwald,3807,582,BE,46.709,7.965,BE05
2a1aa15a-cebc-4adb-9b83-342f03bf53ef,Lauterbrunnen,3822,584,BE,46.593,7.909,BE05
740d9db7-d22f-411f-b8ef-5d2db308851c,Isenfluh,3822,584,BE,46.62,7.896,BE05
12bc9a9e-17c8-4118-8070-acef06c401b2,Wengen,3823,584,BE,46.607,7.919,BE05
3f42fb27-db2a-460e-b165-f131d38ce9c2,"Kleine Scheidegg",3823,584,BE,46.585,7.961,BE05
4c9fb708-bbe6-4240-8e5b-883d3586f09c,Eigergletscher,3823,584,BE,46.575,7.974,BE05
59027be1-6e51-419d-89d5-ae207a807f6b,Stechelberg,3824,584,BE,46.548,7.902,BE05
2c9cb030-ce1d-44b4-87c7-d9ccaabbe709,Mürren,3825,584,BE,46.561,7.895,BE05
777d1028-6e80-461c-82c6-7912db56cabf,Gimmelwald,3826,584,BE,46.547,7.893,BE05
cefe6b0d-4d0b-4533-8e68-3ca181319bb3,Leissigen,3706,585,BE,46.655,7.773,BE05
7e97b6d8-1473-4923-b385-390271e1ecfe,Lütschental,3816,586,BE,46.637,7.949,BE05
a4c6caf7-4519-4dad-8815-a506263885d7,"Matten b. Interlaken",3800,587,BE,46.677,7.87,BE05
70080855-5de1-46ff-9fbe-2ece8b760e46,"Niederried b. Interlaken",3853,588,BE,46.717,7.929,BE05
f8151564-b9be-483c-80de-de4c1872dbb9,"Oberried am Brienzersee",3854,589,BE,46.738,7.957,BE05
31319b24-f33a-4c22-92ce-d6d1f29c5fac,"Goldswil b. Interlaken",3805,590,BE,46.697,7.88,BE05
cdceed72-e7d3-4984-9776-7807740e917f,"Ringgenberg BE",3852,590,BE,46.701,7.896,BE05
79917a1e-147c-4b03-8faa-06f65047e301,Saxeten,3813,591,BE,46.637,7.831,BE05
64f22c56-6868-4f9e-a926-4c634fa759e1,"Schwanden b. Brienz",3855,592,BE,46.757,8.058,BE05
82b9df39-2262-4962-bef4-0c400e2170a2,Unterseen,3800,593,BE,46.688,7.85,BE05
6d203407-659d-4068-bb65-73e7272aad7a,Wilderswil,3812,594,BE,46.666,7.869,BE05
129a6e4b-c5bf-4471-9053-1c75c607251b,"Arni BE",3508,602,BE,46.936,7.668,BE06
7465b9c7-3222-44c6-b7d1-2d8623037420,Biglen,3507,603,BE,46.93,7.629,BE06
43f02d85-b59a-4568-90ae-9a2a7a6f7b5d,Bowil,3533,605,BE,46.892,7.698,BE06
c9c1e99c-1dd4-42e0-9d14-074cd18324e5,Brenzikofen,3671,606,BE,46.816,7.614,BE03
e5bf5612-5a35-4ed4-8374-d3b4767d0e53,Freimettigen,3510,607,BE,46.868,7.627,BE01
9e744cd7-f0fd-476c-ae2e-8fd9ce589eae,Grosshöchstetten,3506,608,BE,46.907,7.642,BE01
1e50979a-ae8a-44e6-873a-4f0545fca281,Häutligen,3510,609,BE,46.858,7.607,BE01
cf94d2ef-8350-4350-8319-2728f3b7b1b4,Herbligen,3671,610,BE,46.827,7.608,BE03
038f19be-d855-4ad2-b3da-1cc406a15d7f,Kiesen,3629,611,BE,46.817,7.581,BE03
7ac59b1d-d1a8-4a93-b6cf-d12982552bc0,Gysenstein,3503,612,BE,46.89,7.595,BE01
8a692f07-7b6d-480f-93ad-3a81a2b737c0,Konolfingen,3510,612,BE,46.88,7.614,BE01
967e9a28-85cd-44ea-88bb-74acb7acef65,Obergoldbach,3434,613,BE,46.961,7.673,BE06
88e8cc02-cc18-4092-9110-762886b17f01,Landiswil,3434,613,BE,46.958,7.68,BE06
c7ca2c19-528b-4e16-973a-77f13162902d,Linden,3673,614,BE,46.85,7.678,BE03
6dd83889-bb79-4d31-8757-8d3aaee02d3b,Mirchel,3532,615,BE,46.896,7.647,BE06
9056c8f0-4b3a-455c-8eed-aa89698fdc43,Trimstein,3083,616,BE,46.906,7.58,BE01
6c3ece5a-7e1a-43a0-8651-daeb36fd0703,Münsingen,3110,616,BE,46.876,7.555,BE01
9f27d008-cb9a-4751-9031-204d2e0224e4,Tägertschi,3111,616,BE,46.874,7.587,BE01
5ee982c8-979d-43d3-93eb-336a4244f7fe,Niederhünigen,3504,617,BE,46.879,7.639,BE01
80d67878-ae0b-47b7-87d5-7cc35a5107ec,Oberdiessbach,3672,619,BE,46.838,7.624,BE03
c3407132-e167-4c75-8430-ba56a7790725,"Aeschlen b. Oberdiessbach",3672,619,BE,46.838,7.646,BE03
c47dbbcd-bae9-409f-ac9f-52c398e30b1a,"Bleiken b. Oberdiessbach",3674,619,BE,46.816,7.639,BE03
1b5a4d85-4579-475c-9417-e39577bc34fa,Oberthal,3531,620,BE,46.92,7.685,BE06
277462d9-46c0-4cbb-8b21-b8d07112d349,Oppligen,3629,622,BE,46.821,7.594,BE03
716d99dd-3cd6-4f16-af12-6d0f594acb15,Rubigen,3113,623,BE,46.898,7.549,BE01
ad9f6ee8-2bef-4b8c-900a-479c8c36c0e0,Schlosswil,3082,624,BE,46.909,7.612,BE01
b314d8bd-2fa7-4411-a494-75635cb0bbc4,Walkringen,3512,626,BE,46.948,7.615,BE06
4de103fc-9f44-4bf2-bb61-ad80b7270ef0,Bigenthal,3513,626,BE,46.965,7.627,BE06
ba04a52e-b8c2-4015-aea2-c94e4c1a7186,"Rüfenacht BE",3075,627,BE,46.93,7.539,BE01
4fafe10d-7ce3-46a1-ac41-a17255e770e4,"Vielbringen b. Worb",3075,627,BE,46.915,7.549,BE01
2657e9b5-b72e-4f87-8cae-5e149823b412,Worb,3076,627,BE,46.93,7.564,BE01
68b6d885-68d9-4f89-9aa7-2c99c99e4bf6,Enggistein,3077,627,BE,46.933,7.6,BE01
bedd6c15-7dcb-46fa-9059-f2d45cfaa7cf,Richigen,3078,627,BE,46.919,7.587,BE01
b32822f8-d651-482b-8b4c-8c34682ff78a,Zäziwil,3532,628,BE,46.902,7.661,BE06
9100728d-7ed7-4195-9b0e-217cdf4e02f7,Oberhünigen,3504,629,BE,46.88,7.659,BE01
fa7d7f5f-d4d9-4925-ad3a-6c6cf68757e2,"Allmendingen b. Bern",3112,630,BE,46.915,7.524,BE01
f371f09c-81b6-4579-b87d-df27a41f67c8,Wichtrach,3114,632,BE,46.847,7.573,BE01
9d6c8c67-43d5-4769-87a2-c86b8765086f,Clavaleyres,1595,661,BE,46.899,7.091,BE01
fad5fdc3-398e-43f2-b721-c7caba4a6505,Rizenbach,3206,662,BE,46.943,7.227,BE01
d243e780-318a-4ca5-ad02-ee623a11e0f1,Ferenbalm,3206,662,BE,46.948,7.211,BE01
89cabdad-cc62-44fd-9108-ce7febe27a15,Biberen,3206,662,BE,46.939,7.212,BE01
0d6d1a43-ee27-4ae9-92fa-e86f9e569a00,Gammen,3206,662,BE,46.92,7.228,BE01
1f22a6c1-88fa-47ac-b4be-fdcf89326ba6,Frauenkappelen,3202,663,BE,46.956,7.338,BE01
b3103bcc-22a5-449f-8206-c0dc158592fb,Golaten,3207,664,BE,46.985,7.245,BE01
d40c7093-6042-4830-92dc-43d2a84a2dfd,Gurbrü,3208,665,BE,46.964,7.218,BE01
bb4fb84f-43e9-4eef-86e3-25f6efeb8915,Kriechenwil,3179,666,BE,46.911,7.227,BE01
093bfcbf-da2c-4c2e-b116-10f13627e152,"Laupen BE",3177,667,BE,46.903,7.241,BE01
6e451e3e-20a6-4f66-9f7a-ba277fbe848d,Mühleberg,3203,668,BE,46.956,7.263,BE01
2e740a74-1d7d-4c9f-9d6e-ef1a263e811a,Rosshäusern,3204,668,BE,46.933,7.275,BE01
63400ec8-b80c-4fda-a114-74260a33dddf,Gümmenen,3205,668,BE,46.944,7.249,BE01
3168b4f5-d1cb-4a87-883d-51250e7477b8,Münchenwiler,1797,669,BE,46.912,7.126,BE01
d655974a-2030-440a-a7ad-fcf233132aeb,Neuenegg,3176,670,BE,46.897,7.298,BE01
a9ce0a04-1080-4c64-a93e-3a15ece8e7bd,Wileroltigen,3207,671,BE,46.97,7.235,BE01
53e260d5-52db-4ff3-90d6-863dfd34b7cb,Belprahon,2744,681,BE,47.286,7.406,BE09
06ac07fc-6e40-492a-a98a-599a103bfd6c,Champoz,2735,683,BE,47.256,7.299,BE09
351e8ba0-63e0-412c-98cd-af6f3fe9268b,"Corcelles BE",2747,687,BE,47.285,7.46,BE09
7b40fce6-ed71-4165-8018-b7dd3fe12d4a,Court,2738,690,BE,47.24,7.332,BE09
57ce438a-1c62-4ffa-afa8-9620c502aea6,Crémines,2746,691,BE,47.286,7.442,BE09
5c3a2a96-253e-42f8-b017-88025dcbb932,Eschert,2743,692,BE,47.276,7.399,BE09
dd3329b2-b213-4c64-af00-9238f57ab5ea,Grandval,2745,694,BE,47.281,7.424,BE09
b31a02da-7f3f-4428-bec9-608ccb60d2d8,Loveresse,2732,696,BE,47.244,7.239,BE09
f662f0ff-e6e7-4927-9c7e-b18d33ad6340,Moutier,2740,700,BE,47.28,7.372,BE09
007f745b-820f-410c-9da4-54fd4aa2ec78,Perrefitte,2742,701,BE,47.275,7.342,BE09
cd13e5e7-936a-460a-9b1a-353497eb3a04,Reconvilier,2732,703,BE,47.235,7.212,BE09
4e0110b3-1de9-4a58-bf57-133dca0badae,"Roches BE",2762,704,BE,47.302,7.383,BE09
1075280f-ac46-4555-a4ee-2e6b5b15e157,"Le Fuet",2712,706,BE,47.244,7.185,BE09
1786abf9-adb5-42df-a881-88ca6356ada5,Bellelay,2713,706,BE,47.264,7.168,BE09
5c1e284e-61fd-4101-9ad2-9d89d9cad671,Saicourt,2732,706,BE,47.243,7.208,BE09
2d9864db-a17f-4629-ba87-a37fe8f60179,"Saules BE",2732,707,BE,47.246,7.222,BE09
f62b882e-12fc-4a94-afcd-d7e38645b766,Schelten,2827,708,BE,47.332,7.551,BE09
149ee9c8-c490-4331-91e0-8a265b25b9b2,Seehof,2747,709,BE,47.305,7.525,BE09
d2b35ee0-a429-4b6a-9a97-5dfb5481863f,Sorvilier,2736,711,BE,47.239,7.306,BE09
685eb928-6586-49d3-9f24-713358227a7d,Tavannes,2710,713,BE,47.221,7.197,BE09
00500bbc-aca9-45c9-8276-b9cc207e47fb,"La Tanne",2720,713,BE,47.221,7.155,BE09
29a6b0fc-a8f3-4aa9-b9a2-bc56feaf2728,Rebévelier,2717,715,BE,47.29,7.187,BE09
62931f2b-56f0-4cb2-9b1b-05b9f8aa53a6,Châtelat,2715,716,BE,47.272,7.194,BE09
457c37f5-fc01-4aec-a128-3dfe9c863e6c,Monible,2715,716,BE,47.276,7.2,BE09
820d1f20-8b9a-4dfa-a636-fa6237b7ae88,Sornetan,2716,716,BE,47.274,7.214,BE09
2d60461b-4ff0-4371-bb2e-cb794d70b932,Fornet-Dessous,2717,716,BE,47.28,7.173,BE09
2f5ca058-f964-4123-9268-2d30c24e9ec6,Souboz,2748,716,BE,47.275,7.244,BE09
0dbfab7f-93d3-4dcb-98a2-bd128d3ef0d3,"Les Ecorcheresses",2748,716,BE,47.277,7.28,BE09
e763f2ab-c0b6-422e-b53b-b58f4eca4ae7,Pontenet,2733,717,BE,47.239,7.254,BE09
11e94ded-c6d1-40a4-870b-efa712722cc0,Bévilard,2735,717,BE,47.236,7.288,BE09
c33c1e4d-7fe5-4988-9086-51a979e81e98,Malleray,2735,717,BE,47.238,7.275,BE09
233c857a-40a3-40f0-ac8d-f000e4153d8a,"La Neuveville",2520,723,BE,47.064,7.097,BE09
8f78e8ad-e4a7-46df-a940-1a70ec9d8106,Nods,2518,724,BE,47.112,7.08,BE09
5b9213f7-143e-4548-a4bc-fbbc9acae2fa,Prêles,2515,726,BE,47.099,7.13,BE09
6cc66419-f4c6-420e-ba23-44c467871e56,Lamboing,2516,726,BE,47.117,7.136,BE09
83a5ff21-f0d8-47ba-8ab9-7fce48447090,Diesse,2517,726,BE,47.112,7.117,BE09
2357e4b9-75ae-4c67-91b4-2b7330521d62,Aegerten,2558,731,BE,47.121,7.292,BE08
6e53bd75-7f17-4b17-9d3a-81e1a6a7dc1b,Bellmund,2564,732,BE,47.107,7.245,BE08
783a5bf1-0f43-499f-bfd6-abe3edb7a64e,"Brügg BE",2555,733,BE,47.124,7.278,BE08
a6f62fef-0c7c-44db-999f-35b5daa7e8eb,"Bühl b. Aarberg",3274,734,BE,47.07,7.247,BE08
253ba01d-a179-4af2-a275-0836c39267b5,Epsach,3272,735,BE,47.07,7.222,BE08
4e235ee1-cc57-4f30-87ab-73e78ad87fd5,Hagneck,2575,736,BE,47.058,7.188,BE08
8935925d-fc9b-444d-af13-407a0d72c461,Hermrigen,3274,737,BE,47.081,7.244,BE08
f29a4b1f-b122-4cb1-ab97-e45c81bb4f3a,Jens,2565,738,BE,47.096,7.264,BE08
1a6e0e06-051b-43c0-a99f-037d66443865,Ipsach,2563,739,BE,47.116,7.229,BE08
b62ff853-8b17-43dd-8066-88964f566deb,Ligerz,2514,740,BE,47.086,7.135,BE08
660c0c91-1a3c-4e6e-bc96-25468afbf450,Merzligen,3274,741,BE,47.088,7.254,BE08
85e99133-8479-40ce-ae7c-23aa971ddc2d,Mörigen,2572,742,BE,47.084,7.212,BE08
5ec1b765-0510-432f-9121-001d511ed516,Nidau,2560,743,BE,47.125,7.241,BE08
0addbf8e-c0f9-44a3-80b1-fa008ed28a04,Orpund,2552,744,BE,47.137,7.313,BE08
cc8d8e2b-b51d-41d5-909d-079dae4737e0,Port,2562,745,BE,47.117,7.255,BE08
36fe819e-2833-4d9a-aa1a-219345528423,Safnern,2553,746,BE,47.15,7.328,BE08
a851b3b0-14fd-43c6-b2a2-5fd714a1ad10,Scheuren,2556,747,BE,47.135,7.321,BE08
a005a6cc-5e5b-4686-9789-3b5f94278970,Schwadernau,2556,748,BE,47.128,7.308,BE08
8e3f3c05-f292-44df-96eb-3b1ee1630431,"Studen BE",2557,749,BE,47.113,7.303,BE08
53ece7cf-82b7-4ab1-aae9-7ae2d1e8a6b0,Sutz,2572,750,BE,47.104,7.217,BE08
4dff2551-2ebf-4425-b6ec-a885696ba6cb,Täuffelen,2575,751,BE,47.065,7.199,BE08
037e807f-acd5-47a0-b486-9aeada90a061,Gerolfingen,2575,751,BE,47.075,7.201,BE08
69f6cb3d-52e8-48c5-bec7-2d21452ca83a,Walperswil,3272,754,BE,47.059,7.23,BE08
f85699bb-80ed-48a4-a60e-3b42957138c5,Worben,3252,755,BE,47.094,7.292,BE08
a992d676-1d1a-446b-8771-6552008de936,Tüscherz-Alfermée,2512,756,BE,47.117,7.195,BE08
01636d6d-cc89-4886-9990-3efcadae1ff0,Twann,2513,756,BE,47.095,7.16,BE08
b40aee04-a280-47b5-a9ae-8a58c8186ba2,Därstetten,3763,761,BE,46.659,7.496,BE03
77988e15-fbd4-4539-a67c-9f829794f3e0,Weissenburg,3764,761,BE,46.658,7.476,BE03
89905d06-28fd-4f52-93d2-f0b89a114da2,Oey,3753,762,BE,46.66,7.579,BE03
80da8911-b657-47af-9ce5-411676b7a68e,Diemtigen,3754,762,BE,46.649,7.566,BE03
6b06efd6-e56e-4904-8853-d208d9b22fc6,Horboden,3755,762,BE,46.63,7.564,BE03
145a04f7-07ae-4f4a-b503-da56d56132ca,Zwischenflüh,3756,762,BE,46.607,7.516,BE03
7c00b7b2-8f31-4f51-83dc-351395294722,"Schwenden im Diemtigtal",3757,762,BE,46.575,7.487,BE03
156882e6-2fba-472d-8f68-78e190c7305f,Latterbach,3758,763,BE,46.664,7.578,BE03
763ffb0d-57d7-4230-ab66-cda01b733025,"Erlenbach im Simmental",3762,763,BE,46.661,7.552,BE03
2e60cde7-ae15-43ce-b5eb-594225acc475,"Oberwil im Simmental",3765,766,BE,46.657,7.433,BE03
a5771e69-f2ba-47fa-94f5-fb70f258c753,Reutigen,3647,767,BE,46.693,7.619,BE03
920ca8c6-0788-45fe-b50c-07d3006d6717,"Gwatt (Thun)",3645,768,BE,46.718,7.627,BE03
bad940da-6573-4101-8f88-4cf8883accb4,Einigen,3646,768,BE,46.709,7.646,BE03
021fee06-0fa9-40b4-adba-a152ca835435,Spiez,3700,768,BE,46.691,7.677,BE03
b9395221-00a3-4cb9-8cb2-769047c4b3f0,Hondrich,3702,768,BE,46.672,7.68,BE03
6f90b99a-6660-44b2-9ee3-9520e1d93bb0,Faulensee,3705,768,BE,46.676,7.703,BE03
11fa02c4-b0cf-4664-8b18-5e7a1d7eec1e,Wimmis,3752,769,BE,46.673,7.635,BE03
bce2bc0b-0ea7-4cb3-a030-6d349247bd18,"Höfen b. Thun",3631,770,BE,46.723,7.564,BE03
68e0317f-3fe2-45dc-b37b-d5a5c7c0e5f3,Niederstocken,3632,770,BE,46.711,7.573,BE03
e204121f-39a5-421d-8c51-161143acfa4f,Oberstocken,3632,770,BE,46.716,7.554,BE03
9771d092-c2a2-4c36-8932-738c23f72759,Guttannen,3864,782,BE,46.655,8.285,BE05
2e53361e-aad7-491a-a26b-b1ca702a48b7,"Hasliberg Hohfluh",6083,783,BE,46.752,8.174,BE05
11bd61ce-1832-4921-a969-b7ec5f0366ec,"Hasliberg Wasserwendi",6084,783,BE,46.747,8.2,BE05
79e9918f-f524-4435-9fdd-916c75b37124,"Hasliberg Goldern",6085,783,BE,46.738,8.197,BE05
c12086d1-71d0-4d56-b9a3-e2a2b9108c37,"Hasliberg Reuti",6086,783,BE,46.732,8.216,BE05
c0555298-0bba-41a1-90ab-61c64bbbf6af,Innertkirchen,3862,784,BE,46.701,8.228,BE05
caf06f3d-382a-4cad-9690-6e681ce0f5fb,Gadmen,3863,784,BE,46.738,8.353,BE05
0114b361-f956-4a90-a9b4-4885f211a7a0,"Unterbach BE",3857,785,BE,46.739,8.112,BE05
a6b8ca4f-ebc8-4060-86f4-d113c0a2ed87,Meiringen,3860,785,BE,46.729,8.189,BE05
3d58609b-c0c0-4970-b708-5c3929f0a12c,Brünig,3860,785,BE,46.758,8.138,BE05
578b561e-8915-4464-81ac-70c5968fea0c,Rosenlaui,3860,786,BE,46.68,8.154,BE05
c4221132-f032-439c-b4cc-117cf23c02cb,Schattenhalb,3860,786,BE,46.707,8.19,BE05
62eef289-c840-4db2-a92e-912d7b4b9f14,Boltigen,3766,791,BE,46.63,7.394,BE04
dcf9394b-9ac9-4168-b869-885ca57a5587,"Lenk im Simmental",3775,792,BE,46.456,7.441,BE04
e8c6e7c8-e60f-4946-ad1a-d25ccd1abbdb,"St. Stephan",3772,793,BE,46.506,7.4,BE04
d8410cb3-87a4-453f-ac52-f5348781e5ae,"Matten (St. Stephan)",3773,793,BE,46.494,7.422,BE04
bf440dc0-4b67-48d2-82c9-6bd4dd9c55cf,Zweisimmen,3770,794,BE,46.552,7.372,BE04
6df54757-deef-406c-b08c-af1290329f93,Blankenburg,3771,794,BE,46.541,7.385,BE04
3d32bcea-a78b-4754-a688-76f9d6fb8194,Oeschseite,3776,794,BE,46.524,7.343,BE04
16b11096-ab71-4827-bc42-8c5328c80ef7,Feutersoey,3784,841,BE,46.418,7.271,BE04
f2a6d773-4dc1-4b04-97e6-47f280342524,"Gsteig b. Gstaad",3785,841,BE,46.385,7.267,BE04
55a25e7f-d799-4b26-b291-a64abc18814b,"Lauenen b. Gstaad",3782,842,BE,46.425,7.321,BE04
be7842b8-649e-4f4a-8af5-db9ff5ce1a14,Abländschen,1657,843,BE,46.577,7.293,BE04
725ec148-5866-4bee-ac9d-e940d1f09418,Saanenmöser,3777,843,BE,46.517,7.312,BE04
8d4f67ad-fa92-4097-ad9c-9505ba8f1f71,Schönried,3778,843,BE,46.504,7.291,BE04
4792b930-c4a2-4a0d-a856-7127c591fcbc,Gstaad,3780,843,BE,46.475,7.286,BE04
41f3c5d1-3d1e-4af6-8133-18154f735d9a,Turbach,3781,843,BE,46.479,7.336,BE04
1000ce18-20a7-40d6-ae0e-6937c96916e9,"Grund b. Gstaad",3783,843,BE,46.446,7.274,BE04
bb982ba2-226e-468d-b419-beb77c15ba1a,Saanen,3792,843,BE,46.49,7.258,BE04
58a32d32-4055-4b93-910b-aedbe0fbd873,Sangernboden,1738,852,BE,46.713,7.353,BE01
798ba37e-3663-45a8-9525-8ea0835b526d,Riffenmatt,3156,852,BE,46.766,7.353,BE01
052420fb-47f4-4fdc-8535-142440c4781f,Guggisberg,3158,852,BE,46.767,7.329,BE01
353b786e-a391-433d-8237-1967b9a2f514,Riedstätt,3159,852,BE,46.784,7.32,BE01
74415a35-06a8-4ce2-a5de-4f6cab2681fc,"Rüschegg Gambach",3153,853,BE,46.776,7.374,BE01
3d93a880-0765-4da2-922b-cf23656c02f9,"Rüschegg Heubach",3154,853,BE,46.782,7.407,BE01
b9875fb7-9b73-4653-b95c-e3d4f00e60d5,Lanzenhäusern,3148,855,BE,46.842,7.347,BE01
0ac67aa2-29d4-4d86-ba6c-3e2f5c27c677,Schwarzenburg,3150,855,BE,46.817,7.342,BE01
3221611a-d59c-4b97-be50-8190893caba0,Mamishaus,3152,855,BE,46.81,7.379,BE01
8fe7f8d0-c8ec-42fe-9596-828ee0365ede,Milken,3157,855,BE,46.793,7.359,BE01
6fb9bed5-041d-4a27-b2f2-c5b7bbd3463a,Albligen,3183,855,BE,46.851,7.316,BE01
0263b62b-151b-4b8c-b6b7-494eb3f4ab94,Belp,3123,861,BE,46.893,7.509,BE01
bd54e1a0-d1c4-4ca9-8e1b-f9e333343a1a,Belpberg,3124,861,BE,46.867,7.521,BE01
8472d36d-f97f-4bc7-b43d-615561ee0937,Burgistein,3664,863,BE,46.796,7.505,BE03
596bc25e-d749-4882-a2f6-f9249b3e06ab,Gelterfingen,3126,865,BE,46.844,7.516,BE01
60dda581-573a-487a-9cad-1a434a56040a,Gerzensee,3115,866,BE,46.838,7.547,BE01
9773dc97-563b-4aca-8357-5fedef59cd83,Gurzelen,3663,867,BE,46.78,7.533,BE03
d5e64bdf-661e-4aaa-840f-738cc6ab7e2a,Jaberg,3629,868,BE,46.819,7.567,BE01
55921a37-e62d-4cc8-b92d-550e37d00d08,Kaufdorf,3126,869,BE,46.838,7.499,BE01
25039a8c-d6ca-4363-a7d2-f57cc35dd468,Kehrsatz,3122,870,BE,46.913,7.474,BE01
e6fcf4e2-543b-485b-8558-c6401959aa9f,"Kirchdorf BE",3116,872,BE,46.82,7.551,BE01
83dce516-d957-4020-842d-169724100824,Kirchenthurnen,3128,873,BE,46.825,7.506,BE01
abe9f56d-365d-4766-a1a1-cb5d2b2fc739,Lohnstorf,3127,874,BE,46.807,7.511,BE01
f74aefd3-23bf-43c9-bb4c-b96d5358d9aa,"Mühledorf BE",3116,875,BE,46.828,7.53,BE01
47658229-6423-43d8-b066-4446a0177343,Mühlethurnen,3127,876,BE,46.814,7.508,BE01
14b7ce28-1fbb-4d31-9374-0791437ac7d9,Niedermuhlern,3087,877,BE,46.861,7.465,BE01
70f715cd-3ed3-487d-84f2-121b6bda8459,"Noflen BE",3116,878,BE,46.806,7.543,BE01
261bc8e5-aece-48bf-8a69-7baf84cc6f2c,"Rüti b. Riggisberg",3099,879,BE,46.783,7.448,BE01
c1d04894-c1ee-429d-8b6a-b84f0819408b,Riggisberg,3132,879,BE,46.812,7.477,BE01
b740bbc7-a9fe-45c3-91c5-71fabc8af78c,Rüeggisberg,3088,880,BE,46.823,7.442,BE01
37bad870-31ed-46fd-8533-5ac1bdca92c4,Oberbütschel,3088,880,BE,46.837,7.459,BE01
7c894be6-8743-4073-8f34-81c7fde94393,Hinterfultigen,3089,880,BE,46.839,7.401,BE01
054ae389-0627-48b4-be79-8b651e26cd45,Helgisried-Rohrbach,3155,880,BE,46.812,7.424,BE01
a7ada168-c2b7-46fe-a034-90045bc50e9d,Rümligen,3128,881,BE,46.831,7.496,BE01
d6732ba9-1625-465c-9b4d-50965da676fc,Seftigen,3662,883,BE,46.787,7.541,BE03
7d3146d8-6fc8-4335-9079-b2791e30dcdb,Toffen,3125,884,BE,46.859,7.493,BE01
bc627e7c-2230-46c6-9d2b-3d4307e05877,Uttigen,3628,885,BE,46.793,7.574,BE03
dfd9caf4-c7ea-4809-b751-540b3ee526d1,Wattenwil,3665,886,BE,46.771,7.505,BE03
6dee2ee8-8712-4b97-a0b4-925c425e7343,Zimmerwald,3086,888,BE,46.876,7.47,BE01
42e45424-bca7-4b48-b50e-2c65dbf18352,Englisberg,3086,888,BE,46.898,7.468,BE01
99f72229-f59d-4da7-8edd-9ab3ae567236,Aeschau,3536,901,BE,46.909,7.766,BE06
e753b2a6-b6b3-456d-b5a2-794c0cc84a23,Eggiwil,3537,901,BE,46.875,7.799,BE06
7461e1ec-c9bc-48f0-ace5-9aca222923ee,"Langnau im Emmental",3550,902,BE,46.942,7.785,BE06
580a2208-6873-499a-9b0e-3fc9ef6b4407,Oberfrittenbach,3551,902,BE,46.978,7.8,BE06
aa4b2fe9-15c7-4438-abd5-d8b4e7068268,Bärau,3552,902,BE,46.933,7.811,BE06
c0b9e569-bea1-480d-bc57-05504d435690,Gohl,3553,902,BE,46.956,7.808,BE06
419cdfd6-648f-4883-ab94-00aca7d1999a,Lauperswil,3438,903,BE,46.967,7.738,BE06
ea6bab84-b3a5-4158-a5e9-d6be7e5c3745,Emmenmatt,3543,903,BE,46.948,7.748,BE06
bf09a295-4b5c-406e-9d95-1d16cb16f6ca,"Röthenbach im Emmental",3538,904,BE,46.853,7.745,BE06
202cfd06-5a89-4754-a54b-89b4076f89d3,Süderen,3618,904,BE,46.818,7.759,BE06
e9ca2d04-de69-4fe7-af4d-fa268d33f75b,"Schwanden im Emmental",3433,905,BE,46.986,7.694,BE06
2f88ac3d-7d4f-46c1-8e1a-19a66c1f915a,Zollbrück,3436,905,BE,46.976,7.741,BE06
922652d6-7ebe-4e80-89ba-63045770245f,Rüderswil,3437,905,BE,46.983,7.72,BE06
165c1077-506e-4d89-98be-d6ba3a18c1b2,Schangnau,6197,906,BE,46.828,7.864,BE06
aadd191d-396c-4462-8ea8-757b7b600c2c,Signau,3534,907,BE,46.92,7.721,BE06
d9f47cb1-6f40-4336-ba87-dbc08fc2815b,Schüpbach,3535,907,BE,46.929,7.735,BE06
aa4858d5-f82f-4474-b194-612934aaf086,Trub,3556,908,BE,46.943,7.877,BE06
31c18dff-29db-4a92-8bb3-18f4089e4e06,"Fankhaus (Trub)",3557,908,BE,46.969,7.909,BE06
55ccd295-d75f-4905-a0f4-61516b4eb370,Trubschachen,3555,909,BE,46.923,7.846,BE06
755379a7-f524-421f-80e8-93b4c37ee260,Amsoldingen,3633,921,BE,46.727,7.579,BE03
92b8fcfd-96a0-4934-81d6-293d0d94fd1a,Blumenstein,3638,922,BE,46.742,7.525,BE03
78f93526-b2c6-46b5-aa20-e2fde963ceb0,Heimenschwand,3615,923,BE,46.827,7.695,BE03
5f68d1ab-d0e9-4b4b-bee8-c6ba44d4dc71,Eriz,3619,924,BE,46.789,7.773,BE03
4cad1ad6-fc43-45ab-9282-ffec7a6c1e22,Innereriz,3619,924,BE,46.786,7.824,BE03
e1c7051b-85b9-4c84-b12b-579ce3911d7c,"Fahrni b. Thun",3617,925,BE,46.798,7.658,BE03
63cd566b-fdd8-4c22-a135-618ccdf78460,Heiligenschwendi,3625,927,BE,46.751,7.679,BE03
65a109c6-4b78-4e4c-9cd6-06966d7d9d99,Heimberg,3627,928,BE,46.794,7.6,BE03
730c94e5-0f7c-40fb-8b59-7231cfa7bc97,Hünibach,3626,929,BE,46.745,7.651,BE03
a828c842-455a-4cfd-9394-a09492b85279,Hilterfingen,3652,929,BE,46.741,7.662,BE03
814be575-6bd3-4c31-a202-40f1a8359698,"Homberg b. Thun",3622,931,BE,46.777,7.684,BE03
d7287012-3143-4aad-914c-aac291ca10fd,Horrenbach,3623,932,BE,46.778,7.752,BE03
e6e94990-a828-466a-8bd0-b4caa94794f1,"Buchen BE",3623,932,BE,46.783,7.709,BE03
bf84f93f-acf3-4ee0-a4c1-300cf0347f12,"Oberhofen am Thunersee",3653,934,BE,46.732,7.675,BE03
8c9a0b0d-174e-4b1f-aaa9-e403100be3eb,Pohlern,3638,936,BE,46.725,7.535,BE03
986a8062-9288-4584-b5e3-e951a87f0937,Schwendibach,3624,937,BE,46.77,7.662,BE03
42b60477-22b0-4588-a1d8-5e323f89b77f,Gunten,3654,938,BE,46.714,7.702,BE03
9fb1dcc0-73fc-4449-bc17-99389fedae0d,Sigriswil,3655,938,BE,46.718,7.72,BE03
ab0d4149-6672-46e0-9559-2db0df8c6ceb,"Tschingel ob Gunten",3656,938,BE,46.724,7.709,BE03
3b668594-9a22-42fe-b778-ae6a0602c62b,"Aeschlen ob Gunten",3656,938,BE,46.72,7.699,BE03
0422a565-887b-45fd-a2f8-d3bae00fed09,Ringoldswil,3656,938,BE,46.733,7.695,BE03
9d171c4a-23cf-488d-aa30-427054114e40,"Schwanden (Sigriswil)",3657,938,BE,46.736,7.716,BE03
a83b2692-117c-4ed0-a4b7-e6aaa0a5ec78,Merligen,3658,938,BE,46.699,7.738,BE03
9967908e-6a93-4af3-94ba-e2204c2df6bb,Steffisburg,3612,939,BE,46.783,7.638,BE03
01e1c049-9212-442c-bd9f-51826222d474,Steffisburg,3613,939,BE,46.771,7.615,BE03
c6684c27-fe1e-48fc-80d1-866176cbbd51,"Teuffenthal b. Thun",3623,940,BE,46.767,7.711,BE03
5b211d89-2e7e-4507-ba0d-6949333d1512,Thierachern,3634,941,BE,46.752,7.576,BE03
15b949ad-4f05-4de3-93fc-cf880ecb651a,Thun,3600,942,BE,46.756,7.624,BE03
494bf7b8-e850-4efc-bb4a-67971619fefb,Thun,3603,942,BE,46.762,7.6,BE03
713cb598-d5e4-43bb-99a3-a7c28ce65131,Thun,3604,942,BE,46.741,7.617,BE03
324bc100-93dd-4f89-aba6-48d7edb25f0a,Thun,3608,942,BE,46.74,7.599,BE03
87937f2b-5c9a-4232-a1a3-bf65a6238314,"Goldiwil (Thun)",3624,942,BE,46.762,7.665,BE03
6c1d5228-0553-46df-92a9-cdf71f8f487a,Uebeschi,3635,943,BE,46.74,7.551,BE03
c039bd72-795f-4cd6-bfae-12a122a73a1c,Uetendorf,3661,944,BE,46.778,7.576,BE03
33622e05-fdf5-4eea-ae44-2ede237d4be1,Unterlangenegg,3614,945,BE,46.798,7.693,BE03
bd1c1b2e-9f95-4b18-a5fc-904626befe1d,Schwarzenegg,3616,945,BE,46.797,7.715,BE03
78ff14da-6aa5-418d-ad76-dad32f99147b,Zwieselberg,3645,947,BE,46.71,7.617,BE03
42da1a77-dd69-472a-81d6-12777867c2c0,Längenbühl,3636,948,BE,46.757,7.538,BE03
4b5cb725-4dbd-407f-9b9b-b9d1a3c6dd73,"Forst b. Längenbühl",3636,948,BE,46.763,7.522,BE03
7c70ecd7-0c50-46c7-add4-466d0a8782dc,"Affoltern im Emmental",3416,951,BE,47.067,7.733,BE06
167aea8a-e30f-467f-bd15-5c1e660dfec4,"Weier im Emmental",3462,951,BE,47.063,7.753,BE06
e9b1d201-9a6f-4650-aee7-11944960c7ff,"Häusernmoos im Emmental",3463,951,BE,47.079,7.747,BE06
79fc545c-eed6-46fc-ba26-32b164957893,Dürrenroth,3465,952,BE,47.089,7.796,BE07
a1f1aad6-7f2c-409a-afdf-d8e6407dc651,Eriswil,4952,953,BE,47.078,7.851,BE07
04e2989f-1ce4-4eaa-b8b2-d9e5c4722d03,Huttwil,4950,954,BE,47.114,7.85,BE07
3ed6eb01-0e51-48e5-bcd9-e53d4564ff3f,"Schwarzenbach (Huttwil)",4953,954,BE,47.106,7.832,BE07
605e4342-d1e9-4aec-b6a9-73cebd01b3b9,Lützelflüh-Goldbach,3432,955,BE,47.001,7.684,BE06
4cbe6443-f194-4a2d-8a2a-28cd30e6c71c,Ramsei,3435,955,BE,46.998,7.708,BE06
1cc363b1-22a3-4fe1-b8cf-f145177a7bcc,Ranflüh,3439,955,BE,46.99,7.743,BE06
0817792e-910d-46e8-bd04-32ce07a6cf32,Grünenmatt,3452,955,BE,47.01,7.726,BE06
400349d8-4436-4c92-a986-f77dbb3a5257,Rüegsauschachen,3415,956,BE,47.023,7.657,BE06
d08feb45-7b1d-451b-98b9-86cc201f23aa,Rüegsau,3417,956,BE,47.027,7.676,BE06
aab3535b-eef5-4eba-9136-ad04477730c3,Rüegsbach,3418,956,BE,47.034,7.692,BE06
9bd9c8bc-914f-4b3b-9d59-1dfc31d69c71,Sumiswald,3454,957,BE,47.028,7.745,BE06
989e7b7b-fd1a-4926-bf30-8b0817836f04,Grünen,3455,957,BE,47.025,7.741,BE06
09d493e9-87a2-4015-918d-42cd1185c5ce,"Wasen im Emmental",3457,957,BE,47.043,7.797,BE06
18b60943-e419-4a54-99d3-e9a4d8df50f3,Heimisbach,3453,958,BE,47.012,7.761,BE06
ff3e61bc-7ca1-4b4e-af3f-5c83c63f2c0a,Trachselwald,3456,958,BE,47.017,7.743,BE06
a747f880-47b1-45ef-b606-df1f81e553ed,Schmidigen-Mühleweg,3464,959,BE,47.095,7.744,BE07
c2e9bec8-80c3-4ea9-90c4-dfc48b05f206,"Walterswil BE",4942,959,BE,47.113,7.776,BE07
a6cbbeb9-c455-4b2f-a014-f8d2ea163da1,Wyssachen,4954,960,BE,47.079,7.824,BE07
c304e5f6-6768-4f34-8c7e-0f8a3d919a12,Attiswil,4536,971,BE,47.25,7.616,BE07
6391d0f0-b571-44a9-9a13-c8d4bc9036b3,Berken,3376,972,BE,47.226,7.706,BE07
19b6851f-4e2e-449e-a739-cc69834bbf08,Bettenhausen,3366,973,BE,47.173,7.718,BE07
fcb7cdc9-2754-4505-b7e7-244d6b2f944d,Bollodingen,3366,973,BE,47.166,7.706,BE07
67a5c980-23dc-4c50-88dd-36458ab868ee,Farnern,4539,975,BE,47.267,7.618,BE07
6b697e7c-20ec-42f8-824f-9e322d30e795,Graben,3376,976,BE,47.215,7.718,BE07
5fbfeb1a-83bd-4667-99ef-7ab60d531831,Wanzwil,3372,977,BE,47.199,7.692,BE07
88157b6e-1ee5-4750-a377-8c7d37d2fedd,"Röthenbach Herzogenbuchsee",3373,977,BE,47.207,7.683,BE07
8d411f3c-031a-470f-8fd5-26c907277ddf,Heimenhausen,3373,977,BE,47.214,7.698,BE07
08449490-b96e-4882-bb5e-8617fa9e47f4,Herzogenbuchsee,3360,979,BE,47.195,7.714,BE07
db87c3d3-7b18-4949-a233-c2a686abd140,Oberönz,3363,979,BE,47.179,7.697,BE07
4f951ca2-b5f2-4330-aedc-3668b3c04059,Inkwil,3375,980,BE,47.201,7.674,BE07
c3b39775-a00a-4668-93c1-ae70c5391f81,Niederbipp,4704,981,BE,47.268,7.702,BE07
8af761a9-e2ca-4711-b111-f02049ddcda2,Niederönz,3362,982,BE,47.186,7.687,BE07
2afad6b7-248e-42e0-b897-dc9f207300cf,Oberbipp,4538,983,BE,47.26,7.657,BE07
cf5ad980-ab24-451a-87d8-55306447e2be,Ochlenberg,3367,985,BE,47.15,7.736,BE07
6f9f4e67-fe07-4840-8a62-a20a4b421fa9,Oschwand,3476,985,BE,47.141,7.713,BE07
41b5604c-251c-44be-821a-248272b46069,Rumisberg,4539,987,BE,47.266,7.64,BE07
52992162-508a-47f4-ab5c-1ddcadc10098,Grasswil,3365,988,BE,47.144,7.67,BE07
f00cf524-a8ab-4a94-993a-242379703990,Seeberg,3365,988,BE,47.156,7.664,BE07
d86cb342-67de-493f-b275-ca5ee487f734,Riedtwil,3475,988,BE,47.142,7.697,BE07
e7b3423c-b58e-491d-aa62-c1eb21371006,Hermiswil,3475,988,BE,47.156,7.701,BE07
24af1412-e26c-4c07-b565-5fdd828fc288,Thörigen,3367,989,BE,47.175,7.73,BE07
511a00e9-0fed-44fc-9061-21dac856eaa4,"Walliswil b. Niederbipp",3380,990,BE,47.237,7.692,BE07
86bc7624-90f4-484e-a7b5-82304f148a5d,"Walliswil b. Wangen",3377,991,BE,47.229,7.683,BE07
0d4261ee-c1fe-488e-a757-b58c1e22a0a8,"Wangen an der Aare",3380,992,BE,47.232,7.661,BE07
e7afe76d-239e-42c8-bc87-f005e767d707,Wangenried,3374,993,BE,47.217,7.656,BE07
2eddeb71-f664-4319-908e-da662a22c3fc,Wiedlisbach,4537,995,BE,47.247,7.648,BE07
ac84f59e-c516-46a4-ac0f-6cc98ba0bdec,Wolfisberg,4704,996,BE,47.275,7.66,BE07
a8070e1c-5df6-42ad-beed-4f82c06cb2b7,Doppleschwand,6112,1001,LU,47.019,8.055,LU04
6ea8240d-84a9-4426-afad-87f441500240,Entlebuch,6162,1002,LU,46.992,8.065,LU04
de0026c7-1a3d-4810-9d19-81f8fea3cfe7,Rengg,6162,1002,LU,47.003,8.091,LU04
3ddc22a8-522a-4717-9303-12603b76a98f,"Finsterwald b. Entlebuch",6162,1002,LU,46.973,8.102,LU04
0f4b6e6f-08b9-48b1-9650-4d6daaf8acf7,Ebnet,6163,1002,LU,47.022,8.077,LU04
754f15f6-5697-477d-b91e-2a4a72514adf,"Flühli LU",6173,1004,LU,46.88,8.02,LU04
134b8282-9f8a-4180-bd6a-ec14a95fc51c,Sörenberg,6174,1004,LU,46.823,8.032,LU04
b111b833-20ef-403b-89e6-eabc0bb9174c,"Hasle LU",6166,1005,LU,46.98,8.051,LU04
40721b2f-d84e-41f3-8412-74cc3b5ea382,Romoos,6113,1007,LU,47.011,8.024,LU04
dc71c4a8-6013-4765-813a-4f4cf1b1ba6b,Bramboden,6167,1007,LU,46.979,7.986,LU04
111c6d34-11fc-48d9-9279-5ec99ec8e080,Schüpfheim,6170,1008,LU,46.953,8.02,LU04
6c842547-db5c-4fb5-860e-b0a23fc40b88,"Schachen LU",6105,1009,LU,47.038,8.143,LU04
eaca846f-5e2c-4a9a-ab71-98f34d1e85ff,Werthenstein,6106,1009,LU,47.054,8.103,LU04
567b1a13-f1d7-4a7f-a61c-4c5f9b4d76b3,Escholzmatt,6182,1010,LU,46.913,7.941,LU04
9e62032a-00c4-4047-9c69-63375d9a35e0,Wiggen,6192,1010,LU,46.895,7.91,LU04
395b884c-4b7f-46e3-9720-f5383590cc34,"Marbach LU",6196,1010,LU,46.853,7.901,LU04
1f1208f2-b9f3-407e-9481-702c75fb8150,"Aesch LU",6287,1021,LU,47.255,8.239,LU05
8c4f06ab-d5cc-4108-a100-4fe4f6d5e472,Altwis,6286,1022,LU,47.238,8.248,LU05
402d45b3-9474-4dcf-ba0a-c23673f6e031,Ballwil,6275,1023,LU,47.152,8.321,LU05
61b4c74f-806b-4c86-a854-409f26088fdb,Emmenbrücke,6020,1024,LU,47.077,8.274,LU05
f80032a7-9452-4c7e-b22c-6dee51d1829f,Emmen,6032,1024,LU,47.079,8.302,LU05
042b77ae-c371-430d-9efb-bf2beb6d4fac,Ermensee,6294,1025,LU,47.228,8.243,LU05
6a682333-c8ad-40ab-ba34-6c3f2b8c2ccf,"Eschenbach LU",6274,1026,LU,47.133,8.32,LU05
10619ad3-15ec-4071-af20-98263089d557,Gelfingen,6284,1030,LU,47.215,8.272,LU05
2ada3e47-f9ce-43f6-82cb-e0114c74af2c,"Sulz LU",6284,1030,LU,47.22,8.289,LU05
966d0495-237d-433b-9f8c-7531e77545df,Hitzkirch,6285,1030,LU,47.225,8.264,LU05
5ad97c8b-7305-4051-9e07-3d0ba65def17,Retschwil,6285,1030,LU,47.193,8.253,LU05
34d36494-74f4-45a8-ae5c-71cbd1fb5239,Müswangen,6289,1030,LU,47.238,8.289,LU05
fe851c0c-5645-4b36-8795-517732c75ee6,Hämikon,6289,1030,LU,47.243,8.3,LU05
de8bb439-53d3-4086-8846-3fd496b794df,Hämikon,6289,1030,LU,47.237,8.272,LU05
1ad861ba-3933-4113-96c8-62c7f392a38a,Mosen,6295,1030,LU,47.243,8.228,LU05
3a95b37b-87a2-4d40-9c80-a2e3b4ccc422,Hochdorf,6280,1031,LU,47.167,8.293,LU05
c4b3ba63-f818-4282-81c1-48bb51c2f673,Urswil,6280,1031,LU,47.15,8.297,LU05
85c3d984-6340-46c9-9dd1-7ae8be41fcc4,Baldegg,6283,1031,LU,47.186,8.28,LU05
07c8276e-2525-46c1-8304-c37adc28e6c1,Hohenrain,6276,1032,LU,47.179,8.318,LU05
7f902d76-1529-4ee8-a725-930f4babae4e,Kleinwangen,6277,1032,LU,47.198,8.3,LU05
4d7704ac-81b9-49fb-b16a-b243c4fa796a,"Lieli LU",6277,1032,LU,47.21,8.299,LU05
14ac6f57-8c9c-4b0c-9b88-63ccf457dec6,Inwil,6034,1033,LU,47.122,8.35,LU05
561e487f-b519-43c3-bed8-fec53e67d0f7,Rain,6026,1037,LU,47.13,8.263,LU05
30eace6c-4aa8-424e-a385-3b0acaed5188,"Römerswil LU",6027,1039,LU,47.17,8.246,LU05
e58bc4b4-006e-4302-8011-3920343e1737,Herlisberg,6028,1039,LU,47.197,8.231,LU05
b69f3973-a01e-4f38-8fb2-e76412529ee0,Rothenburg,6023,1040,LU,47.094,8.273,LU05
35bb0b35-a0e0-42be-a88a-c8d74c00ebe4,Schongau,6288,1041,LU,47.267,8.272,LU05
8b3271cd-51b2-40a9-9567-4f2cb5d4d708,Adligenswil,6043,1051,LU,47.071,8.365,LU01
fb773e30-149e-4271-8750-47e0c6834667,Buchrain,6033,1052,LU,47.095,8.346,LU01
a4f0afac-32e3-48fb-b7c9-672413ea9e83,Perlen,6035,1052,LU,47.111,8.36,LU01
1fe26b44-64f5-43fd-ab2e-3b4784f91c5d,Dierikon,6036,1053,LU,47.097,8.372,LU01
d23eb1ba-8876-42a6-96d0-38397e353242,Ebikon,6030,1054,LU,47.082,8.34,LU01
5e6ff0db-0283-48dd-a74d-864b32a00fd3,Gisikon,6038,1055,LU,47.127,8.399,LU01
9f5aa0a2-33df-4145-b58a-182d9ee8d5c7,Greppen,6404,1056,LU,47.056,8.43,LU01
f71cba6e-7701-4ea8-90d6-27c5d5b81a97,Honau,6038,1057,LU,47.133,8.406,LU01
562e46db-b575-4e7f-86df-a6876f86f2a1,"St. Niklausen LU",6005,1058,LU,47.019,8.34,LU01
1005e9dd-fa04-4b9d-a036-de12a6d9723b,Kastanienbaum,6047,1058,LU,47.013,8.334,LU01
912acdd1-cb8f-4b52-a2be-69c2a513cbd2,Horw,6048,1058,LU,47.013,8.313,LU01
f36fb7e2-4a31-4883-9b53-8397e6e2c6d6,Kriens,6010,1059,LU,47.033,8.279,LU01
ac56bb68-131c-4046-b822-97e5f4241772,Obernau,6012,1059,LU,47.032,8.253,LU01
44739b5d-a63c-4b08-9ac9-dace4953dee9,Luzern,6003,1061,LU,47.05,8.297,LU01
71d86030-4c50-46fb-af17-6f0a1654ad0c,Luzern,6004,1061,LU,47.06,8.298,LU01
78ac36da-0a01-49fa-a38f-eb420f19fdb8,Luzern,6005,1061,LU,47.039,8.315,LU01
5b49dad6-188a-4b6c-ab80-9a1af2740019,Luzern,6006,1061,LU,47.053,8.345,LU01
71122a9d-3110-4a0b-9425-e54cabdede68,Luzern,6014,1061,LU,47.058,8.242,LU01
f52e967e-1141-4be9-b27f-901865a91ca3,Luzern,6015,1061,LU,47.063,8.279,LU01
d85db1b4-794b-4acc-ae4e-71b7a808316d,Malters,6102,1062,LU,47.036,8.183,LU01
d392b4c3-89d5-44cc-bb9a-94e96b2a4fed,Meggen,6045,1063,LU,47.046,8.372,LU01
818d63f0-5adb-4979-870b-b8dd98506ee4,Meierskappel,6344,1064,LU,47.125,8.443,LU01
d198449d-c742-400d-80ea-18c8becc99b9,Root,6037,1065,LU,47.113,8.385,LU01
fd13ca08-d36f-403c-acdd-18ad33b66eef,"Root D4",6039,1065,LU,47.103,8.372,LU01
808cd56d-74ac-4f45-b099-913f4630a6a7,Eigenthal,6013,1066,LU,47.007,8.219,LU01
554b7620-aea6-40de-accf-ff5e440024b2,"Schwarzenberg LU",6103,1066,LU,47.016,8.174,LU01
c07c75bd-0edf-4670-923f-26009b2b8f4c,Udligenswil,6044,1067,LU,47.091,8.399,LU01
0f1dcc7b-5971-40e2-bc04-983dfbec54bb,Vitznau,6354,1068,LU,47.01,8.484,LU01
6a237e48-5e21-48a5-a024-cc229ee58fc3,Weggis,6353,1069,LU,47.033,8.434,LU01
5ee857e9-6569-4d47-9162-26ac0fd6fdbf,"Rigi Kaltbad",6356,1069,LU,47.044,8.471,LU01
32cae895-2723-4de6-bdd6-594e59395f91,Neudorf,6025,1081,LU,47.177,8.212,LU02
eac0f3a0-7f19-4dd7-847e-786049e79e8f,Beromünster,6215,1081,LU,47.206,8.201,LU02
7170b479-4892-4024-aa8e-d6596707d555,"Schwarzenbach LU",6215,1081,LU,47.234,8.213,LU02
c9758fba-7997-4899-9b4a-607393b4aa09,Gunzwil,6222,1081,LU,47.213,8.175,LU02
ec1f99ab-935f-4724-9707-d95c13ea9e33,Büron,6233,1082,LU,47.215,8.091,LU02
ee560ae8-c1ec-4f98-a8c3-725c19885af8,Buttisholz,6018,1083,LU,47.115,8.088,LU02
314b951e-42a9-430a-ad83-2365ece4143b,Eich,6205,1084,LU,47.153,8.171,LU02
be69e54b-9c0d-478b-8867-d6a7df37474c,Geuensee,6232,1085,LU,47.2,8.113,LU02
707f5d74-dc71-40df-98fc-a2caaa534fb0,Grosswangen,6022,1086,LU,47.133,8.05,LU02
6080d353-83f4-44c2-8b8f-0a3323cf4b95,Hildisrieden,6024,1088,LU,47.15,8.233,LU02
589c9947-b300-4d26-a29b-dcafb57a5ffb,"St. Erhard",6212,1089,LU,47.183,8.074,LU02
916caa60-d98c-4413-84b2-34646eeceb08,Knutwil,6213,1089,LU,47.202,8.073,LU02
72c7856e-cc69-4ee3-9c32-3ecdc0279c7a,Kaltbach,6212,1091,LU,47.184,8.059,LU02
cc2fa8b8-1769-4e07-94c6-38cc04ae2981,Mauensee,6216,1091,LU,47.168,8.067,LU02
8c20deb1-63a5-4a5e-bfaa-5322ed213d39,Hellbühl,6016,1093,LU,47.07,8.197,LU02
b21d45a3-3712-4b8a-916e-70f20d0fd01e,"Sempach Station",6203,1093,LU,47.115,8.193,LU02
a79fc796-8ce8-4bd4-b6f0-35cc7f5f7e24,Neuenkirch,6206,1093,LU,47.1,8.204,LU02
6100c713-11ed-4716-aa2f-3cefabc82f4a,Nottwil,6207,1094,LU,47.134,8.134,LU02
2cfaf0a4-a26c-4bf4-84a4-295a9793c668,"Oberkirch LU",6208,1095,LU,47.159,8.115,LU02
dc9a8cdc-6300-493a-842f-e5f0e1797ba9,"Pfeffikon LU",5735,1097,LU,47.25,8.178,LU02
d4701d64-ea2b-402b-94f3-a3a8b236ae06,"Rickenbach LU",6221,1097,LU,47.22,8.153,LU02
9e7f8c6b-c220-4cc6-b202-5ac5304bf1c1,Ruswil,6017,1098,LU,47.085,8.127,LU02
3e9d9ff6-40d6-4b3e-8754-8ee872da26e2,Sigigen,6019,1098,LU,47.065,8.135,LU02
7983e169-5b01-4aeb-a345-687b6ef2f2c6,Schenkon,6214,1099,LU,47.173,8.136,LU02
85c47ab8-221e-4cf4-a8fd-6d1c81a5139f,Schlierbach,6231,1100,LU,47.226,8.11,LU02
15e35133-6f9b-4715-b69c-8531197d9d91,Sempach,6204,1102,LU,47.133,8.199,LU02
cce4dd72-86f7-4696-b1bc-960172bd5fec,Sursee,6210,1103,LU,47.173,8.109,LU02
b18d3aaf-a49f-474f-897d-fecc0d361cf1,Triengen,6234,1104,LU,47.237,8.083,LU02
e9a55a90-5fcd-434c-aa33-009a8fc7479e,Kulmerau,6234,1104,LU,47.253,8.09,LU02
bce68e7e-8cb1-4f22-9909-546cbb1a100f,Winikon,6235,1104,LU,47.237,8.049,LU02
8c55b559-0c1a-4210-918d-705c2f874d79,Wilihof,6236,1104,LU,47.223,8.064,LU02
7a70538e-ee9a-43db-bae3-7641b154f9f4,Wolhusen,6110,1107,LU,47.06,8.075,LU02
d4747728-20a4-4398-85f7-6a16fc0e4369,"Fontannen b. Wolhusen",6110,1107,LU,47.036,8.04,LU02
55c19572-7730-4b2b-9e91-5046aadd2c65,Steinhuserberg,6114,1107,LU,47.043,8.046,LU02
c7c8769b-0c04-4d3d-9c61-39d93c559426,Alberswil,6248,1121,LU,47.15,7.997,LU03
6dd45fe6-60ae-4ed1-bdee-2af7ada94a8b,Altbüron,6147,1122,LU,47.18,7.882,LU03
b711bf90-7e7d-4175-bd3b-7870787e495d,Altishofen,6246,1123,LU,47.202,7.96,LU03
d334d8f4-34b8-48e7-b1ab-0b71f7e6374d,"Buchs LU",6211,1125,LU,47.201,8.037,LU03
bf84c83e-70a7-491b-8e7f-e6a15bbc2384,Dagmersellen,6252,1125,LU,47.214,7.99,LU03
e452cf35-1606-4508-b27d-122abcca0c36,Uffikon,6253,1125,LU,47.211,8.018,LU03
952d62d5-52e3-448e-8331-e546d112a858,Ebersecken,6245,1126,LU,47.181,7.933,LU03
36cc18de-8295-4cc3-92dd-695f10f3312c,Egolzwil,6243,1127,LU,47.185,8.006,LU03
c4a8720c-9a79-4a5e-ab79-fb6fe9be90f9,Kottwil,6217,1128,LU,47.163,8.045,LU03
e4c731d7-4183-4480-a280-5cc89da8c14a,Ettiswil,6218,1128,LU,47.149,8.014,LU03
a5344fe8-c0d3-464c-bc67-230049443b04,"Fischbach LU",6145,1129,LU,47.156,7.908,LU03
a5d03a79-405d-4ef8-b530-a59dcd4f4386,Gettnau,6142,1130,LU,47.142,7.97,LU03
23ad95e8-1be6-4d9d-b5e8-076ee52fb609,Grossdietwil,6146,1131,LU,47.172,7.889,LU03
4572bf3a-29b2-4b98-98ee-4f8d2c3fb5f2,"Hergiswil b. Willisau",6133,1132,LU,47.086,7.959,LU03
344a75b1-2b01-42c5-9621-17e457ce6631,Hofstatt,6154,1135,LU,47.085,7.915,LU03
67b4d674-5f9e-4a0d-a820-eef9f459acf0,Luthern,6156,1135,LU,47.06,7.918,LU03
64faed55-27fc-4910-b0d0-a63cf8102966,"Luthern Bad",6156,1135,LU,47.028,7.927,LU03
b482236e-fb90-406d-8aaf-2a2811702de7,Menznau,6122,1136,LU,47.084,8.039,LU03
f7262a58-25ea-4c59-b122-089d7a2dd41c,Geiss,6123,1136,LU,47.09,8.056,LU03
415b7fd8-7971-4fca-8bbf-fe580283cd8a,Menzberg,6125,1136,LU,47.041,7.998,LU03
01cc6ac1-7ce9-46ed-94b9-dc4ed7e3248f,Nebikon,6244,1137,LU,47.191,7.975,LU03
d79e4e97-ed3e-4c31-8556-b9d350599cb3,"St. Urban",4915,1139,LU,47.232,7.84,LU03
3d7a0da2-c7e0-4349-b407-77bbfd90aa00,Pfaffnau,6264,1139,LU,47.227,7.9,LU03
d15a4a7f-06bf-4b35-8691-1cb2b8a15fff,Reiden,6260,1140,LU,47.244,7.972,LU03
e0c39f89-e86c-418e-bb1a-76bafcc24bb2,Reidermoos,6260,1140,LU,47.255,7.99,LU03
d8337307-1580-46ef-9f33-d1317142d44c,Mehlsecken,6260,1140,LU,47.244,7.957,LU03
56e86677-d215-4019-bf02-54def0d704cc,"Langnau b. Reiden",6262,1140,LU,47.231,7.963,LU03
a7f14e2a-382e-4178-a33e-660fc20f7a04,Richenthal,6263,1140,LU,47.219,7.942,LU03
044ed35c-08a8-4fa7-9d63-9f76a13bbc38,Roggliswil,6265,1142,LU,47.212,7.886,LU03
9bae3cd8-4f47-4f38-9830-e260e7760274,Ohmstal,6143,1143,LU,47.16,7.954,LU03
565d6f7a-ad83-498a-91af-06780fc3441d,Schötz,6247,1143,LU,47.172,7.986,LU03
d6db83e7-4865-4035-8409-e548712333c9,Ufhusen,6153,1145,LU,47.118,7.9,LU03
f8fc7726-f7d8-48f2-81a1-93a213221cbe,Wauwil,6242,1146,LU,47.186,8.023,LU03
b1d8d70a-7706-442f-9fc3-8bc406918796,Wikon,4806,1147,LU,47.263,7.967,LU03
5d608be1-5f89-4592-bada-0a695645ba2e,Hintermoos,6260,1147,LU,47.27,7.998,LU03
bbb0622c-9309-4297-b794-02276952ec6c,"Zell LU",6144,1150,LU,47.135,7.922,LU03
9b648a8f-887b-4478-b0c9-eb40922fba59,Hüswil,6152,1150,LU,47.129,7.905,LU03
706bdabd-03a5-44ae-a9a3-86414eb1010b,Daiwil,6126,1151,LU,47.096,8.014,LU03
385280fa-6169-46ae-8b9c-cf0bd004f7a3,Willisau,6130,1151,LU,47.12,7.99,LU03
300bedff-6dad-4ce2-9743-d3104061472a,Rohrmatt,6132,1151,LU,47.084,7.985,LU03
31d6bcc0-c3fd-4924-aef6-3120b3dcebaa,"Altdorf UR",6460,1201,UR,46.884,8.634,UR01
b4645954-77c3-4f25-abaa-033443feb755,Andermatt,6490,1202,UR,46.632,8.597,UR01
24041ed5-9cc9-4dda-94ce-ee0560e81856,Attinghausen,6468,1203,UR,46.865,8.624,UR01
682529e3-137b-47e5-a4ff-50811ae0dae7,Bauen,6466,1204,UR,46.935,8.578,UR01
02befd85-61bf-4afc-aaa4-ecf74c391009,"Bürglen UR",6463,1205,UR,46.873,8.669,UR01
f29116b3-b3cf-4e6b-b765-6acf2376ea20,Erstfeld,6472,1206,UR,46.82,8.65,UR01
1de3c9c8-89aa-4a7a-afaf-2c4da9657df1,Flüelen,6454,1207,UR,46.905,8.629,UR01
413b94de-fd92-42fd-92b2-a43728db5e15,Göschenen,6487,1208,UR,46.67,8.584,UR01
f80fb4c9-d036-4573-b1fe-1a49b20c2d19,Intschi,6476,1209,UR,46.76,8.65,UR01
15b5d23f-9b69-45e9-bfa5-0ad987323200,Gurtnellen,6482,1209,UR,46.738,8.628,UR01
5a9115b4-2cdc-4223-b37d-ba60cad52c11,Hospental,6493,1210,UR,46.619,8.573,UR01
7f95a843-c912-4e17-a1c2-320debcd6a83,Isenthal,6461,1211,UR,46.912,8.561,UR01
ae32ee33-477f-4abb-bf1b-ca672d347251,Realp,6491,1212,UR,46.6,8.506,UR01
1fc99736-d592-42b0-a275-5771c1b7a18b,Schattdorf,6467,1213,UR,46.864,8.659,UR01
4c9145dc-f2cd-4545-9f63-cb4c52c92add,"Haldi b. Schattdorf",6469,1213,UR,46.862,8.675,UR01
287e4a0a-5b7b-4603-b600-5cb6c321b7f2,"Seedorf UR",6462,1214,UR,46.884,8.611,UR01
f3720d7f-ccae-4f3a-a07d-bcdd58c97667,Seelisberg,6377,1215,UR,46.974,8.586,UR01
1eed9887-a855-46d4-a17a-09f06bd1031d,Rütli,6441,1215,UR,46.969,8.593,UR01
0ff2fd6a-5feb-4b1d-8c97-439efff6936e,Silenen,6473,1216,UR,46.79,8.67,UR01
6977c454-ccf3-44a3-8976-6fe95f58adb8,Amsteg,6474,1216,UR,46.771,8.671,UR01
a9b5c054-64aa-474a-a81e-52e453520026,Bristen,6475,1216,UR,46.769,8.691,UR01
8a56b0f5-8ea8-4321-abf2-ad61c1bd6865,Sisikon,6452,1217,UR,46.948,8.624,UR01
ab042d93-f954-4aaa-9514-cf2a1b1cfa37,Spiringen,6464,1218,UR,46.871,8.728,UR01
fcf1c31e-ee75-47a9-84df-112e3ea15048,Urnerboden,8751,1218,UR,46.889,8.902,UR01
59de314d-db15-404e-b2a2-06aa1f54e5c9,Unterschächen,6465,1219,UR,46.861,8.768,UR01
c5d7a3bf-b55d-48d2-be7d-04d4f618774b,"Wassen UR",6484,1220,UR,46.706,8.596,UR01
97ab0627-37bb-4d7f-9b75-7fac000fb7c2,Meien,6485,1220,UR,46.726,8.549,UR01
fd585712-0d03-4f65-ba12-9db701cd417b,Bennau,8836,1301,SZ,47.149,8.73,SZ01
df50fa62-713e-4628-9c05-5f70dc709667,Einsiedeln,8840,1301,SZ,47.128,8.75,SZ01
d872c55b-74a2-4857-98a2-2350070bffea,Trachslau,8840,1301,SZ,47.098,8.725,SZ01
92411d54-7c48-4b44-8ef7-d12fc7d1699e,Gross,8841,1301,SZ,47.116,8.776,SZ01
a1366ad0-272b-47a7-9dc4-680b04bf65aa,Euthal,8844,1301,SZ,47.096,8.816,SZ01
821ef5cd-8112-42ca-82ff-63d6d7fe25d9,Willerzell,8846,1301,SZ,47.13,8.794,SZ01
33dca13a-1ca1-4728-bde5-a9d5bf4b44b0,"Egg SZ",8847,1301,SZ,47.161,8.781,SZ01
18a027f5-ff1c-4d93-9397-0c5076d4ad0a,"Rigi Scheidegg",6410,1311,SZ,47.025,8.521,SZ01
254e6bd8-0ea2-41ad-a388-eaf935a490a9,Gersau,6442,1311,SZ,46.994,8.53,SZ01
6b6cb86e-6090-4b46-bc76-4ad461292cad,Schindellegi,8834,1321,SZ,47.174,8.713,SZ01
0bec1032-63b8-4a11-966d-c249e67c1076,Feusisberg,8835,1321,SZ,47.188,8.748,SZ01
0d8c2a03-05bd-4972-897c-04cf173420c8,Hurden,8640,1322,SZ,47.214,8.806,SZ01
27da1a5d-00c6-4ae4-8340-a026e3ab7abf,"Bäch SZ",8806,1322,SZ,47.204,8.733,SZ01
fd243391-ba5e-4172-8878-c4703169ca5a,Freienbach,8807,1322,SZ,47.205,8.761,SZ01
961418e1-46f3-45fa-a3b2-81404d912691,"Pfäffikon SZ",8808,1322,SZ,47.2,8.778,SZ01
c3728568-b250-4bc4-9b27-cddace654c88,Wollerau,8832,1322,SZ,47.196,8.752,SZ01
8ea08ce8-8b71-4196-ac2f-51e71e80b598,"Wilen b. Wollerau",8832,1322,SZ,47.197,8.735,SZ01
94cf8ede-3c23-4e02-94b2-55a9428362ef,Wollerau,8832,1323,SZ,47.196,8.719,SZ01
cd556197-dc07-43e3-97c2-72826198539b,Merlischachen,6402,1331,SZ,47.066,8.408,SZ01
5b2d599e-60d9-4194-ac07-de043cc82e94,"Küssnacht am Rigi",6403,1331,SZ,47.08,8.44,SZ01
5eed4819-9211-4e9f-a0e9-65dfa67955a6,Immensee,6405,1331,SZ,47.096,8.461,SZ01
3df1f5a7-d09f-45f6-b2ac-a60d9a214061,Altendorf,8852,1341,SZ,47.192,8.831,SZ01
b24bb43d-e53b-4e6d-b3da-61ccae4a5bdf,Galgenen,8854,1342,SZ,47.182,8.874,SZ01
83fae5c9-bdcc-4bb7-a78a-60f6903611fe,Innerthal,8858,1343,SZ,47.106,8.919,SZ01
4ff24e21-a1e3-4885-9bed-ad45fd519c16,"Lachen SZ",8853,1344,SZ,47.197,8.858,SZ01
7474ffef-66a3-4799-9626-0e56500a9c2f,Reichenburg,8864,1345,SZ,47.171,8.974,SZ01
53dab198-20b3-4b1c-9d36-93ed995ef2c1,Siebnen,8854,1346,SZ,47.176,8.897,SZ01
0f3992cd-a8ab-40c6-836b-62c0132caa42,Schübelbach,8862,1346,SZ,47.173,8.924,SZ01
035b6c43-cc02-4eae-80c9-1db2afb4114b,"Buttikon SZ",8863,1346,SZ,47.172,8.951,SZ01
3dbd43fe-5bad-4654-afff-0e1b1641c9e5,Tuggen,8856,1347,SZ,47.2,8.948,SZ01
aa32855c-8d45-4b83-b497-03f6d269b338,Vorderthal,8857,1348,SZ,47.123,8.9,SZ01
c5b4511f-e858-4fbb-8038-ce29ece989b6,"Wangen SZ",8855,1349,SZ,47.19,8.891,SZ01
899ed46d-dd3e-4c94-8cff-1cb41929cfb4,Alpthal,8849,1361,SZ,47.071,8.716,SZ01
e60a6430-c18c-498a-a3e5-d357088dae84,Goldau,6410,1362,SZ,47.051,8.556,SZ01
e10879bd-2357-4c32-bc67-463190637000,"Rigi Klösterli",6410,1362,SZ,47.044,8.487,SZ01
c5931087-a1eb-47a9-8b88-8ecc6325204f,"Rigi Staffel",6410,1362,SZ,47.054,8.475,SZ01
3c612833-d5e4-45bf-bad1-58b0ca735950,"Rigi Kulm",6410,1362,SZ,47.055,8.483,SZ01
2d4ae288-8304-4a3a-8208-c87f40c0ee07,Oberarth,6414,1362,SZ,47.053,8.534,SZ01
3626fae7-74aa-4acc-9585-30187f09a862,Arth,6415,1362,SZ,47.064,8.523,SZ01
c769c518-aa29-4e64-b138-1fd8623ca540,Illgau,6434,1363,SZ,46.988,8.723,SZ01
e9ac1317-6cb9-4526-803c-f7a09a063590,Brunnen,6440,1364,SZ,47,8.602,SZ01
11baa64c-4340-4486-86a2-93c3766e19f9,Lauerz,6424,1365,SZ,47.032,8.58,SZ01
a169aef0-0589-4674-86f6-ff13549b74f4,"Stoos SZ",6433,1366,SZ,46.98,8.665,SZ01
51d0f6af-ec9f-43be-aa9e-a96b431d094b,Morschach,6443,1366,SZ,46.98,8.617,SZ01
6b90c3a8-237d-4fb6-a5a1-0f80f14bca91,Muotathal,6436,1367,SZ,46.978,8.76,SZ01
4a884af7-4ea3-42f4-9915-22c03acfceeb,Bisisthal,6436,1367,SZ,46.944,8.831,SZ01
abb53e39-0243-40e2-859d-a3c8c7c4bb77,"Ried (Muotathal)",6436,1367,SZ,46.986,8.714,SZ01
43300f20-e9f7-4673-bc40-ace3a50a9a6c,Oberiberg,8843,1368,SZ,47.042,8.786,SZ01
0ce7d0e4-2512-4f8b-b0c0-91941356e7cd,Riemenstalden,6452,1369,SZ,46.947,8.666,SZ01
f2aa555f-9727-4602-84b4-29ab23085d56,Rothenthurm,6418,1370,SZ,47.105,8.675,SZ01
ca789701-f273-4c7b-ad2a-bc2fdf6f77f8,Sattel,6417,1371,SZ,47.084,8.638,SZ01
ed543106-e3e6-4ef4-b9d7-905482eec85d,"Seewen SZ",6423,1372,SZ,47.031,8.63,SZ01
48fcde11-2bd2-491c-ab88-023b86440187,Schwyz,6430,1372,SZ,47.021,8.654,SZ01
c3715cdd-e6e8-4a25-b90d-d1d956b71191,"Rickenbach b. Schwyz",6432,1372,SZ,47.016,8.666,SZ01
85d6cc7b-6d22-43f2-ab9a-bbde2a5d1306,Ibach,6438,1372,SZ,47.011,8.647,SZ01
38129444-c6e4-46ef-b20d-b10d193fe4f3,Steinen,6422,1373,SZ,47.047,8.612,SZ01
75bc4d92-0982-4e61-b7f7-21ddbc05f5de,Steinerberg,6416,1374,SZ,47.052,8.585,SZ01
cc39dc79-3d1a-4c6a-a4c9-4d25121bedf4,Unteriberg,8842,1375,SZ,47.056,8.803,SZ01
1d469d21-c564-447f-8c23-1ca18f9ce505,"Studen SZ",8845,1375,SZ,47.073,8.834,SZ01
bf5137c2-d8d9-4ae5-bb1e-3e4648191dea,Kriens,6010,1401,OW,46.979,8.255,OW01
ecffc2d4-a657-47ab-a67c-076c204a13e4,Alpnachstad,6053,1401,OW,46.953,8.277,OW01
1b604b3a-d531-45fd-bc69-06d2edc70485,"Alpnach Dorf",6055,1401,OW,46.939,8.265,OW01
d5ff4ecf-5187-47fc-943d-952e70d97b0f,Grafenort,6388,1402,OW,46.868,8.374,OW01
70fa1ab4-261c-4a34-8b5d-60ebdcb398df,Engelberg,6390,1402,OW,46.816,8.404,OW01
4d07796c-ea3a-42e5-832b-71a2fcbed2c4,Giswil,6074,1403,OW,46.837,8.181,OW01
e2973ca8-6387-4167-a3e2-aeef669b2681,Kerns,6064,1404,OW,46.902,8.28,OW01
b00c7e39-0998-4a46-9fc7-0615163c63b5,"St. Niklausen OW",6066,1404,OW,46.875,8.283,OW01
441c7e2a-90ba-4418-b0f7-19166e07d397,Melchtal,6067,1404,OW,46.834,8.293,OW01
5b4c2b35-b474-4713-a0c6-02cf19372fd1,Melchsee-Frutt,6068,1404,OW,46.774,8.264,OW01
7a98b09f-cbdb-4e1b-96d2-a8199508a9e9,Lungern,6078,1405,OW,46.783,8.159,OW01
73703d72-574e-40a6-a197-fde98d8f6725,"Bürglen OW",6078,1405,OW,46.812,8.166,OW01
ff1a4448-293e-4f4b-86f2-187e28c628c2,Sachseln,6072,1406,OW,46.865,8.233,OW01
dd67770a-c90d-4379-ade5-252ff2bdbb81,Flüeli-Ranft,6073,1406,OW,46.872,8.264,OW01
fbf96309-b531-4fa2-9024-955dc77d48c7,Kägiswil,6056,1407,OW,46.92,8.259,OW01
7f53dc44-f213-4efe-8180-2c350db24381,Sarnen,6060,1407,OW,46.894,8.25,OW01
81ecfc66-1ba7-4d6b-b33b-3795d947853d,Ramersberg,6060,1407,OW,46.9,8.231,OW01
638ba8df-c853-404a-93d8-ca7c4f808aaf,"Wilen (Sarnen)",6062,1407,OW,46.882,8.224,OW01
e8444d64-9c44-42e9-8c5d-288b53e543df,"Stalden (Sarnen)",6063,1407,OW,46.887,8.209,OW01
2ba88d58-4614-43f7-8d26-80bc95240ba9,Beckenried,6375,1501,NW,46.965,8.469,NW01
a8a0cff5-ba93-459f-8e2e-eaf443d8cb57,Buochs,6374,1502,NW,46.971,8.42,NW01
82dbfe6d-6ffd-4d5b-ba49-9ab66f803429,Dallenwil,6383,1503,NW,46.933,8.391,NW01
89a6f1aa-bdae-4f28-a764-d788748f104e,Wiesenberg,6383,1503,NW,46.926,8.365,NW01
18c0751f-c94a-4a3d-9b22-2551c592f0f7,Wirzweli,6383,1503,NW,46.913,8.365,NW01
8689fc13-8423-4a07-aff8-89aefad07a94,Emmetten,6376,1504,NW,46.956,8.523,NW01
b26a6b90-bad4-4bc3-8dd0-b4ca734852e1,Bürgenstock,6363,1505,NW,46.997,8.382,NW01
dae83282-d6d1-409f-b3ef-e58bb232cb34,Ennetbürgen,6373,1505,NW,46.985,8.414,NW01
1d0cbd8a-7fba-4b7a-8c01-fa21479ee8af,Ennetmoos,6372,1506,NW,46.957,8.332,NW01
45a2b883-3907-40b0-ad43-61dda6ddba63,"Hergiswil NW",6052,1507,NW,46.987,8.304,NW01
6b63c0c9-2923-4a51-a736-b3f74b6b7b9a,"Oberdorf NW",6370,1508,NW,46.959,8.384,NW01
f974029d-03a8-4bfb-8496-0c9e4d39d2b3,"Büren NW",6382,1508,NW,46.939,8.402,NW01
5d052b07-706e-4c96-a52e-6466a0047fd9,Niederrickenbach,6383,1508,NW,46.921,8.437,NW01
e2a77d8f-0647-412c-a54f-e17323920b0a,Stans,6370,1509,NW,46.958,8.36,NW01
baa7bd79-87f2-4fb6-80ef-c46094a1e784,Stansstad,6362,1510,NW,46.977,8.34,NW01
c1ebb24e-e4f0-41de-ad48-9d58ee9a87da,Obbürgen,6363,1510,NW,46.982,8.36,NW01
bcbd6971-e4cf-4f74-a668-605abd6b3c03,Fürigen,6363,1510,NW,46.982,8.352,NW01
5a4b2adf-9486-4f6c-b963-6b1ab3417f47,Kehrsiten,6365,1510,NW,47.001,8.37,NW01
9911d724-9745-421b-84b8-889d866c18e7,Wolfenschiessen,6386,1511,NW,46.909,8.396,NW01
eece4be9-0dbf-4fc5-9302-66c7dafc46e7,Oberrickenbach,6387,1511,NW,46.888,8.424,NW01
7c36c06f-ae06-46c8-a14b-1bd7b6155128,Näfels,8752,1630,GL,47.101,9.057,GL01
4c7d5318-137b-4712-8b01-e7c9a50d3186,Mollis,8753,1630,GL,47.095,9.083,GL01
63393571-7c38-4714-946c-f03a19983972,Filzbach,8757,1630,GL,47.123,9.131,GL01
8fc14d8e-e343-486d-898d-3b1c0425e6c6,Obstalden,8758,1630,GL,47.118,9.151,GL01
c56d1bb9-957c-442d-a98f-b8d830efb366,Bilten,8865,1630,GL,47.15,9.025,GL01
168a4a31-b562-4cba-bf79-7dab471687e3,Niederurnen,8867,1630,GL,47.126,9.053,GL01
462cc9b4-b39a-40bd-b37f-f54bd31a73df,Oberurnen,8868,1630,GL,47.116,9.056,GL01
03bd8604-4a43-4f28-95ba-60e9e0d52d56,Mühlehorn,8874,1630,GL,47.115,9.176,GL01
3bcc99db-119f-4098-84e1-a70e9c52d65e,Mitlödi,8756,1631,GL,47.012,9.077,GL01
2ff0abb0-c9e0-4e63-a3cc-a7674149645e,"Schwanden GL",8762,1631,GL,46.998,9.067,GL01
5a38a003-f6f7-471f-8159-b3758c7928de,"Schwändi b. Schwanden",8762,1631,GL,47.008,9.066,GL01
5b1eee08-1c4e-4c8f-98ef-3a2e3a4cdb7d,Sool,8762,1631,GL,47,9.091,GL01
c59cf62b-8389-4072-a43a-cc014320254b,Engi,8765,1631,GL,46.981,9.151,GL01
7339732f-17e5-4887-ae5e-83b719fe3eee,Matt,8766,1631,GL,46.963,9.17,GL01
15347977-b710-42e9-8023-6f1dcb5eeabd,Elm,8767,1631,GL,46.919,9.172,GL01
96b2f86b-bad5-4435-abcc-0325b44705e9,Nidfurn,8772,1631,GL,46.987,9.051,GL01
e24253ee-e26e-4406-939e-231423725967,"Haslen GL",8773,1631,GL,46.981,9.06,GL01
3c415407-df92-44ff-a1b2-9fd5562f79b6,Leuggelbach,8774,1631,GL,46.977,9.041,GL01
43c5cdf9-bc9c-46bc-ad98-6c58f2bb6683,Luchsingen,8775,1631,GL,46.967,9.036,GL01
13f022b1-0d97-4d63-923b-ba41778fa336,Hätzingen,8775,1631,GL,46.961,9.04,GL01
b3d54214-f145-4a3b-be8c-b964f4ea3a18,"Diesbach GL",8777,1631,GL,46.952,9.035,GL01
15586e71-8348-4d57-a285-4b65a37844a6,Betschwanden,8777,1631,GL,46.944,9.027,GL01
71b1446c-5263-43f6-8a6b-4bb557bd1695,"Rüti GL",8782,1631,GL,46.935,9.018,GL01
6507ab70-6137-4b93-bba4-727e41cb2f18,Linthal,8783,1631,GL,46.917,8.996,GL01
21eb2723-2623-419a-a50c-ea1ff7414434,Braunwald,8784,1631,GL,46.941,8.998,GL01
e0232cf8-59b8-4087-933e-edd3c6cf6e18,Glarus,8750,1632,GL,47.042,9.058,GL01
70eb41e3-513c-4455-b627-af0f7839ce7f,Riedern,8750,1632,GL,47.049,9.047,GL01
2864e9cb-4426-4a64-98b0-a54c330bac5d,Klöntal,8750,1632,GL,47.026,8.942,GL01
11b76b88-768d-45fc-85dd-24ed387b6f4f,Netstal,8754,1632,GL,47.064,9.051,GL01
dcde920a-f7dc-47dd-98ca-10324927656b,Ennenda,8755,1632,GL,47.037,9.081,GL01
060b1417-f59d-4bf0-9f11-3b628b60a5ee,Allenwinden,6319,1701,ZG,47.165,8.551,ZG01
f41acfda-e47a-4b72-91d0-7771282d62cd,Baar,6340,1701,ZG,47.196,8.523,ZG01
05e33873-9104-4ce6-9113-e93d64ee04a5,Cham,6330,1702,ZG,47.185,8.452,ZG01
400b3b61-d3fa-410f-8b10-79444e33e7ce,Hagendorn,6332,1702,ZG,47.2,8.434,ZG01
db98fcdd-d0bb-403c-be45-87b633dec301,Hünenberg,6331,1703,ZG,47.175,8.428,ZG01
ddf4cae9-85bc-428f-9a4b-3157f271ff38,"Hünenberg See",6333,1703,ZG,47.169,8.45,ZG01
bf29e5a5-01cc-4adc-9f67-79da5f9fa713,Menzingen,6313,1704,ZG,47.179,8.59,ZG01
85e2345e-01c9-4031-b658-6ed758d868c0,Edlibach,6313,1704,ZG,47.18,8.571,ZG01
bc5c8e90-331c-461a-b42a-f40a865eb5b6,Finstersee,6313,1704,ZG,47.167,8.63,ZG01
5913db6a-abde-41d4-b760-8c3338987168,Sihlbrugg,6340,1705,ZG,47.218,8.577,ZG01
9098929c-2dbc-48b9-af2a-175e4f46ab54,Neuheim,6345,1705,ZG,47.202,8.581,ZG01
47c3326b-c279-4248-8858-b8d6ca718538,Oberägeri,6315,1706,ZG,47.139,8.614,ZG01
2a00bc8e-e329-49aa-8f1f-b164703444ae,Alosen,6315,1706,ZG,47.143,8.639,ZG01
eb3b8d4e-4f74-4b5d-90ea-b291311084c9,Morgarten,6315,1706,ZG,47.101,8.635,ZG01
f1baf04a-df8e-4a8b-8a82-e079104c9a1e,Rotkreuz,6343,1707,ZG,47.138,8.435,ZG01
81096916-4680-4af2-89d4-5a3fa20bbf48,Buonas,6343,1707,ZG,47.14,8.455,ZG01
e6f89266-e8d9-4d51-b9c6-6974a848b9c9,Risch,6343,1707,ZG,47.133,8.465,ZG01
d914df62-039d-4dbb-be55-8fe2d8d463fd,"Holzhäusern ZG",6343,1707,ZG,47.154,8.441,ZG01
3a4856cb-0567-4483-aba6-e3c4430faec1,Steinhausen,6312,1708,ZG,47.199,8.49,ZG01
e53aaa3a-6e31-4b5c-b9b9-dad6963e17d3,Unterägeri,6314,1709,ZG,47.138,8.583,ZG01
bedbf9af-d558-4c9f-8dd4-578ae275edc2,Neuägeri,6314,1709,ZG,47.152,8.563,ZG01
cb87f70b-e837-4712-8a63-cf6e564c1ede,Walchwil,6318,1710,ZG,47.1,8.515,ZG01
d8451d93-d1af-4793-bf86-98ea0caae5cd,Zug,6300,1711,ZG,47.169,8.519,ZG01
138a0752-44f4-45fc-993b-931e963b679e,Zugerberg,6300,1711,ZG,47.143,8.533,ZG01
b8efc567-bd6f-4033-9315-c57e3fcfa78c,"Oberwil b. Zug",6317,1711,ZG,47.147,8.512,ZG01
092a9009-89c2-4cbc-84eb-53d2431c28f5,"Châtillon FR",1473,2008,FR,46.833,6.828,FR01
0668d79d-8877-48a5-8b3a-a5f4c0b96b51,Cheiry,1529,2009,FR,46.749,6.834,FR01
9a1255cd-6ca5-4181-930a-f10c3c06ab39,"Chapelle (Broye)",1534,2009,FR,46.77,6.852,FR01
452f9939-d66b-4bbe-b05d-b5f6e31051de,"Cugy FR",1482,2011,FR,46.815,6.893,FR01
5d173a82-97ce-4576-92f2-6df265a9e853,Vesin,1483,2011,FR,46.808,6.873,FR01
a5fc0be8-98bc-4c67-b245-a3d873cc19f5,Fétigny,1532,2016,FR,46.797,6.915,FR01
c2fbf799-7331-42ca-9186-6403f05e9e01,Gletterens,1544,2022,FR,46.895,6.937,FR01
3371dcbc-72e4-4b1e-9e9f-32688c5e3a71,"Lully FR",1470,2025,FR,46.835,6.848,FR01
dcc7e4c5-dd0c-457a-9c7a-98914b1f864f,Seiry,1470,2025,FR,46.812,6.832,FR01
61dd29a7-51ab-4fe1-aebb-e7fb6efce6b3,Bollion,1470,2025,FR,46.817,6.827,FR01
7f725eac-24cf-44d6-9dd6-df90078e43b2,Ménières,1533,2027,FR,46.784,6.881,FR01
c0ce9049-e870-42cf-8cd1-62ea0182b9c4,Cousset,1774,2029,FR,46.827,6.971,FR01
0a6ac819-da87-4378-bf58-6e66007966a8,Cousset,1774,2029,FR,46.819,6.978,FR01
495121b4-2df9-4a68-a2ad-092c821010c6,Montagny-les-Monts,1774,2029,FR,46.81,6.992,FR01
7ec7884e-e98a-432d-8e72-635e6c5f5ad4,Mannens,1775,2029,FR,46.793,6.97,FR01
38f4593e-bca2-4046-bf99-65512d8e6abf,Grandsivaz,1775,2029,FR,46.785,6.981,FR01
1f2eea6c-3716-42b6-9857-6b1cb846ddc3,Montagny-la-Ville,1776,2029,FR,46.818,6.995,FR01
4a4d84d1-3800-43d3-adf4-18ed9999f694,Nuvilly,1485,2035,FR,46.784,6.831,FR01
e002df0f-f15c-4a6a-82e9-2f4881ec30a9,Prévondavaux,1410,2038,FR,46.727,6.793,FR01
5c96c84e-b59d-4647-861e-6d39dea504e8,"St-Aubin FR",1566,2041,FR,46.89,6.98,FR01
481e5b47-885a-4428-a878-4d746a36f7f0,"Les Friques",1566,2041,FR,46.903,6.988,FR01
98429318-3dcc-4623-b0e5-f386850015cc,Sévaz,1541,2043,FR,46.839,6.875,FR01
4cd07293-d925-49f4-b88f-8757c18aac72,"Villeneuve FR",1527,2044,FR,46.746,6.869,FR01
de126860-17d3-4e43-87e6-c80c9d53d9e9,Surpierre,1528,2044,FR,46.745,6.861,FR01
5c22b142-cc88-4b94-8cdc-eda7d989fe74,Praratoud,1528,2044,FR,46.735,6.848,FR01
ab988b55-fbb3-4476-baff-cd99d46039e9,Vallon,1565,2045,FR,46.885,6.953,FR01
0b6185b2-98bd-4244-8a8a-6d46c17edcca,"Montet (Broye)",1483,2050,FR,46.816,6.869,FR01
1c9bd0f5-5030-4151-a1ed-03ccada5afc5,Frasses,1483,2050,FR,46.827,6.864,FR01
722f0c99-957f-41c1-9820-f59e6f1d1ea7,Aumont,1484,2050,FR,46.801,6.849,FR01
1295aa92-4bcc-47f6-9f29-2845c1f96cc5,Granges-de-Vesin,1484,2050,FR,46.812,6.843,FR01
f8a86139-6a44-4a2d-a550-fe063007a3bf,Delley,1567,2051,FR,46.913,6.968,FR01
5f3310b6-4c79-4211-aac9-c89b84babc84,Portalban,1568,2051,FR,46.918,6.955,FR01
a5678672-05c4-426c-9096-39983342df1b,"Dompierre FR",1563,2053,FR,46.853,6.989,FR01
f8152f7e-d85b-4f38-b711-d58a6a5c5513,Domdidier,1564,2053,FR,46.865,7.015,FR01
827b6812-660e-4d41-90bf-7a1b18df2957,Léchelles,1773,2053,FR,46.829,7.016,FR01
178685d2-9112-40d3-a6a7-11468eeed45e,Chandon,1773,2053,FR,46.839,7.048,FR01
15b8be96-ff94-4c8b-98eb-8e0d2774ec6d,Russy,1773,2053,FR,46.843,7.001,FR01
c01d5852-7885-4ae5-9bb4-45ce982bef9e,Estavayer-le-Lac,1470,2054,FR,46.85,6.847,FR01
c4f36400-ca5d-4ae2-bed8-0294890229a7,Font,1473,2054,FR,46.834,6.813,FR01
89cae4b1-7e5d-49e6-a0a1-0ca550765223,Autavaux,1475,2054,FR,46.865,6.877,FR01
11d7b528-0082-477f-9295-71fc2044fcf8,"Forel FR",1475,2054,FR,46.876,6.888,FR01
71972203-5b55-4548-af22-8ed718cadbee,Montbrelloz,1475,2054,FR,46.854,6.886,FR01
f6e993f0-72fd-4cd8-8539-d90739f6c3a2,Vuissens,1486,2054,FR,46.738,6.766,FR01
3eaa1fc9-e192-4df3-ac16-f44396c42720,Murist,1489,2054,FR,46.79,6.807,FR01
bc04de33-36f2-4e62-8f83-aa1de1da1821,"Bussy FR",1541,2054,FR,46.835,6.889,FR01
938ed27b-693a-40a8-9b67-630f87cb6f4c,"Morens FR",1541,2054,FR,46.844,6.908,FR01
9b6ce5e8-4ba2-4639-be3a-02778b90202b,Rueyres-les-Prés,1542,2054,FR,46.86,6.917,FR01
41dcfdfd-3446-4984-b758-f1ce6452c098,Cheyres,1468,2055,FR,46.814,6.787,FR01
3f61e270-d9e8-4472-9abd-4b0dc5a49197,"Châbles FR",1474,2055,FR,46.826,6.809,FR01
4e704466-8249-48e9-96f0-35d48ce5e5f0,Auboranges,1673,2061,FR,46.583,6.806,FR02
8fa6f9ec-22ce-4e7a-8736-85d3b372e228,Billens,1681,2063,FR,46.691,6.9,FR02
692117b6-082a-42f6-be22-8a7519a40ad8,Hennens,1681,2063,FR,46.683,6.885,FR02
e835aad5-9e60-452c-a2ae-48471278e00f,"Chapelle (Glâne)",1608,2066,FR,46.588,6.834,FR02
c8366865-dca4-4ab4-a1ba-1a8f20b75f9f,"Le Châtelard-près-Romont",1689,2067,FR,46.678,6.978,FR02
5b018536-ffdc-4d03-8324-49291453ab75,Châtonnaye,1553,2068,FR,46.754,6.938,FR02
a0ab374d-7c11-46f2-ad17-c599e67fc36d,"Ecublens FR",1673,2072,FR,46.609,6.808,FR02
98c4c717-b7f2-4661-b735-07af4ffafa0b,Grangettes-près-Romont,1686,2079,FR,46.676,6.965,FR02
392c852d-76f5-48df-8163-4d54c300b645,Massonnens,1692,2086,FR,46.701,6.973,FR02
1ea7818f-87d7-43a8-8f1f-9cc8fa6b0a14,Berlens,1680,2087,FR,46.693,6.953,FR02
70a8de0b-b9cc-41d6-b825-fcd619a33373,"Mézières FR",1684,2087,FR,46.679,6.926,FR02
6bfef1b1-1999-42ae-9a58-1cca61beb65d,"Montet (Glâne)",1674,2089,FR,46.645,6.814,FR02
aaea6bbe-6e53-4a3b-9078-3fcac963e9fb,"Romont FR",1680,2096,FR,46.695,6.918,FR02
f3da25e9-a967-4555-b0ba-138427ccc49c,Promasens,1673,2097,FR,46.601,6.823,FR02
54106afd-75dc-45d8-90c2-939fb1d8c8c5,Gillarens,1673,2097,FR,46.587,6.827,FR02
d06c6917-f1a6-464c-880c-1093aea8cd65,Rue,1673,2097,FR,46.62,6.822,FR02
daa29caa-df76-425a-aebc-a663a40b077e,Blessens,1675,2097,FR,46.611,6.84,FR02
e70fc9e0-284d-4498-9871-e7cc3fe5f694,Chavannes-les-Forts,1676,2099,FR,46.652,6.898,FR02
ddfb5fa2-ba01-4273-ae32-913348be0c32,Prez-vers-Siviriez,1677,2099,FR,46.638,6.874,FR02
1724f241-e421-43b9-82ee-22706fff238b,Siviriez,1678,2099,FR,46.658,6.88,FR02
16dbf6f1-06cf-4a5b-bcd1-9a14ed4c4ab5,Villaraboud,1679,2099,FR,46.659,6.913,FR02
38d12692-9aaf-499d-a284-ec9a54a4b177,Ursy,1670,2102,FR,46.636,6.834,FR02
adbf7d52-d054-406f-8264-0f793340721b,Bionnens,1670,2102,FR,46.635,6.855,FR02
280425ab-24cd-4065-9b14-55633446a15e,Esmonts,1670,2102,FR,46.642,6.844,FR02
29c424b9-45b4-4e6e-9ad6-939416148138,Vuarmarens,1674,2102,FR,46.645,6.827,FR02
dd34166b-5cd1-49c9-84b6-e4c5f71fcb1b,Morlens,1674,2102,FR,46.653,6.837,FR02
