ID,CITY,ZIP_CODE,COMMUNAL_CODE,CANTON_CODE,LATITUDE,LONGITUDE,REGION_CODE
38f5a5fe-b9c5-4ea4-a638-c83b6c1d3ffd,Lausanne,1000,5586,VD,46.552043,6.6523078,VD01
de5434b9-3eb7-4cc4-9e0b-d856e6adf23e,Lausanne,1000,5586,VD,null,null,VD01
0893802b-e550-4385-a822-cf0258e976af,Lausanne,1001,5586,VD,null,null,VD01
07e4fb4b-2834-48c2-b370-20be33f9756d,Lausanne,1002,5586,VD,null,null,VD01
053a6a56-2b98-4ec9-b31c-a979dca7c54a,Lausanne,1003,5586,VD,46.552043,6.6523078,VD01
366701dc-2170-44c9-8a1c-a98323ffe228,Lausanne,1004,5586,VD,46.519595,6.63233,VD01
babddc1f-4001-4ecb-9c1f-ae48d60f3bbd,Lausanne,1005,5586,VD,46.519595,6.63233,VD01
c20bfd13-bffb-4c06-bda0-42b7dd4ed742,Lausanne,1006,5586,VD,46.519595,6.63233,VD01
7321accd-87c6-4115-98ec-947968fd14d9,Lausanne,1007,5586,VD,46.519595,6.63233,VD01
421d4a6c-b509-447a-9f85-a46ef18b4657,Jouxtens-Mézery,1008,5585,VD,46.538896,6.6049736,VD01
47c7d04c-7865-481f-b7ec-f3639ce011fb,Prilly,1008,5589,VD,46.538896,6.6049736,VD01
585673bd-95c6-4aa3-9c1f-dbd2e75eda4a,Pully,1009,5590,VD,46.521538,6.6694965,VD01
4344ce95-235e-4ff2-95b2-c41d3307e245,Lausanne,1010,5586,VD,46.552043,6.6523078,VD01
6a340763-cc1e-4615-adae-71c9213be683,Lausanne,1011,5586,VD,46.525429,6.64295,VD01
b9dab218-403e-40d8-8a4c-b884d2e0a292,Lausanne,1012,5586,VD,46.52631,6.65689,VD01
3b2a8b52-28db-4caf-8ae6-05511eef2c38,Lausanne,1014,5586,VD,null,null,VD01
8b90e1c1-f806-4e52-b691-88879ebb32ef,Ecublens,1015,5635,VD,46.552043,6.6523078,VD02
de515195-284d-401e-89e6-426c2015f3c9,Lausanne,1017,5586,VD,null,null,VD01
630729c9-b9e8-48c5-b23d-537c3d83a070,Lausanne,1018,5586,VD,46.552043,6.6523078,VD01
61aee140-c0b0-47b7-8167-513ed3ed33ab,Lausanne,1019,5586,VD,null,null,VD01
480cb867-414a-4268-9fff-26e5fe0b27c6,Renens,1020,5591,VD,46.535299,6.593655,VD01
3c0754a3-e04a-4dd7-a762-d1bed7dbd488,Renens,1020,5591,VD,null,null,VD01
9845bab7-56d2-4f6e-91b6-def9ab6a7e0f,Chavannes-près-Renens,1022,5627,VD,46.527979,6.573672,VD02
16814a29-d7a4-4b28-b73a-ade170804773,Crissier,1023,5583,VD,46.558481,6.5773091,VD01
2a15f111-f410-4d36-976f-d7834388647b,Crissier,1023,5583,VD,null,null,VD01
70ff17d3-6a97-4da4-a4bd-e838f2228775,Ecublens,1024,5635,VD,46.52719,6.550683,VD02
845b08c7-fa86-4f14-bed3-0daec4364120,Saint-Sulpice,1025,5648,VD,46.512148,6.539072,VD02
ad93acac-9cbd-45b2-a17e-f3ebfaa0a64b,Denges,1026,5632,VD,46.519399,6.533801,VD02
1b7ceda9-5b5a-42ee-9c98-6a9f0093c9f5,Echandens,1026,5633,VD,46.519399,6.533801,VD02
27acc854-b622-4123-bfa7-06f395c725ef,Echandens,1026,5633,VD,null,null,VD02
90230020-3428-4787-8ed4-bf7cc90a4d21,Lonay,1027,5638,VD,46.529868,6.5169339,VD02
5615b63c-0cab-4d77-ac57-4dffee327895,Préverenges,1028,5643,VD,46.516057,6.5290018,VD02
344f7842-20ab-4bf5-9835-3dbebd2457a5,Villars-Sainte-Croix,1029,5651,VD,46.565837,6.560968,VD02
4e57827a-9d15-4af5-9139-39c4bf750e92,Bussigny,1030,5624,VD,46.552254,6.550058,VD02
4894b686-cd05-4369-b388-5be32378179b,Mex,1031,5489,VD,46.572937,6.543879,VD02
67898ed6-60e9-45b2-8c7a-03888d607e11,Romanel-sur-Lausanne,1032,5592,VD,46.560792,6.608509,VD01
2c1ef243-48f3-445d-a72d-69b6f1ffe404,Cheseaux-sur-Lausanne,1033,5582,VD,46.578149,6.594388,VD01
c6537a73-b900-45fa-ad28-cf64d3f1ef96,Boussens,1034,5473,VD,46.598316,6.581737,VD02
d1beb8b5-faa1-45b3-879c-7deb8469eebf,Bournens,1035,5472,VD,46.608669,6.563911,VD02
5f30dcf8-7aa5-4e4f-8004-db39b516b360,Sullens,1036,5501,VD,46.589389,6.566006,VD02
cf1aaac0-5f56-4217-854b-4d08630ab3c7,Etagnières,1037,5521,VD,46.601426,6.6085046,VD02
d767f076-6424-46d2-8903-6261040fa974,Bercher,1038,5512,VD,46.691642,6.7062034,VD02
c91a696d-e1c8-4b51-b5f5-f4409737eeba,Cheseaux-sur-Lausanne,1039,5582,VD,null,null,VD01
e86a8129-c309-4a99-86c7-691ef686e3ef,Echallens,1040,5518,VD,46.638457,6.6351987,VD02
bad723b4-8d75-4b79-afd8-9ae3fed8cd7f,Saint-Barthélemy,1040,5535,VD,46.638457,6.6351987,VD02
fdae4040-e9d1-4abe-bcd8-d6796d4664c3,Villars-le-Terroir,1040,5537,VD,46.638457,6.6351987,VD02
8c4bceaf-ecd0-4c37-b742-562474b86a24,Bottens,1041,5514,VD,46.612293,6.693623,VD02
e550b9e3-d990-4471-81dc-c1a7ac370840,Jorat-Menthue,1041,5804,VD,46.612293,6.693623,VD02
706a7c39-3d45-4af8-a2e4-d4cff510b3f2,Montilliez,1041,5540,VD,46.612293,6.693623,VD02
2f901706-250d-4d02-8535-33f652f975e3,Poliez-Pittet,1041,5533,VD,46.612293,6.693623,VD02
5fa556fe-9503-4dd7-b44b-231a7db78de6,Assens,1042,5511,VD,46.624188,6.5748561,VD02
712f6f06-ecb5-42b0-a73c-d546202d35e2,Bettens,1042,5471,VD,46.624188,6.5748561,VD02
c193df56-075f-4a73-b433-0b3eac6f69ff,Bioley-Orjulaz,1042,5513,VD,46.624188,6.5748561,VD02
4e4888d1-79e4-45d4-a5d2-f9724c09451c,Montilliez,1043,5540,VD,46.651148,6.671968,VD02
e31c5892-55f9-46a4-99e9-39365bbab13c,Fey,1044,5522,VD,46.672851,6.678434,VD02
82379eb9-3919-48fe-a946-2eadbd027ea4,Ogens,1045,5680,VD,46.705933,6.719208,VD03
32964c91-3ff4-4f3d-9990-fb4c91a26b71,Rueyres,1046,5534,VD,null,null,VD02
19036d2b-2cf9-4d3f-9d0d-964005d00eea,Oppens,1047,5923,VD,null,null,VD03
84e2c490-4c37-4ef2-9020-ef35d3632bf9,Le Mont-sur-Lausanne,1052,5587,VD,46.554765,6.640144,VD01
dde889f0-87d9-41c4-ae3c-6da0a704cf62,Bretigny-sur-Morrens,1053,5515,VD,46.596563,6.640643,VD02
3a24f43e-912b-424c-8d21-e27673a7131b,Cugy,1053,5516,VD,46.596563,6.640643,VD02
7bb0e123-01f7-4675-be6b-1c03aaf27dc7,Morrens,1054,5527,VD,46.589857,6.585893,VD02
31296617-640b-47e3-8339-73a84613a342,Froideville,1055,5523,VD,46.598179,6.6917237,VD02
cb7b62cd-e1a7-4f47-8634-3e9df9281030,Jorat-Menthue,1058,5804,VD,46.618599,6.705818,VD02
bcab6cdd-6f15-40ea-aafa-5db6ba3bfee9,Jorat-Menthue,1059,5804,VD,46.624096,6.730512,VD02
a1686103-8e7a-4a4b-a20e-64e2bc003473,Jorat-Menthue,1061,5804,VD,46.643529,6.726124,VD02
3c24fb70-9c52-46c5-81dc-19f968c27b3a,Jorat-Menthue,1062,5804,VD,46.652751,6.738431,VD02
61da2050-685b-4c0e-a61e-040b9725fbaf,Boulens,1063,5661,VD,46.660073,6.753676,VD03
11bb10d1-192a-4b12-acc5-d8f510f1c064,Montanaire,1063,5693,VD,46.660073,6.753676,VD03
e8d57c27-4bbc-4924-a31f-0141b5a3a4cb,Epalinges,1066,5584,VD,46.550714,6.6684324,VD01
21de0fc1-193b-4e3a-9530-4e1943537e28,Pully,1068,5590,VD,46.536285,6.689425,VD01
ba9a0832-ae3e-4dc3-8b16-8b5a708374c3,Puidoux,1070,5607,VD,46.508573,6.784104,VD02
61d5681d-a6e1-4d17-979e-1220c79486e7,Chexbres,1071,5601,VD,46.484323,6.7800263,VD02
3b753ecf-42aa-407b-958a-21846cea7d2f,Rivaz,1071,5609,VD,46.484323,6.7800263,VD02
95817cdb-7f23-433c-ba8c-984e201496a8,St-Saphorin (Lavaux),1071,5610,VD,46.484323,6.7800263,VD02
908fbb51-a119-4ca5-a1fd-64ba285f0faf,Forel (Lavaux),1072,5604,VD,46.537892,6.7628488,VD02
19da2314-581b-453d-84e2-6f463cd6d32e,Savigny,1073,5611,VD,46.548892,6.7270088,VD02
5b60c4b2-8eca-491c-94e6-9709eea7fcdb,Jorat-Mézières,1076,5806,VD,46.585676,6.74403,VD02
275405e4-7820-45e2-b5c8-0813570f9329,Servion,1077,5799,VD,46.573372,6.776623,VD02
92f33c21-73c8-4f03-ab5d-ad6e6a171779,Essertes,1078,5788,VD,46.561225,6.785426,VD02
f9063892-b4b5-4e91-97a9-673cd378ed9b,Servion,1080,5799,VD,46.568218,6.754425,VD02
67af00a7-8961-4917-9ec6-36e6e291383b,Montpreveyres,1081,5792,VD,46.581299,6.7305646,VD02
10f30aae-5e72-4877-b4f7-1209d853f09f,Corcelles-le-Jorat,1082,5785,VD,46.600963,6.730338,VD02
5b599cf9-49b4-42d1-acff-cdb1de59a39d,Jorat-Mézières,1083,5806,VD,46.586341,6.760865,VD02
f750c3fd-001a-4f72-a17a-8bc593e4a134,Jorat-Mézières,1084,5806,VD,46.599449,6.766514,VD02
5d2e7e80-0e86-475d-b1dc-503e8143261d,Vulliens,1085,5803,VD,46.622192,6.793369,VD02
c3d5f8b8-c821-4491-a8b7-ea0cfc512dd5,Ropraz,1088,5798,VD,46.613243,6.752623,VD02
000f4ea9-828f-40d1-a10d-616cd9652a38,Lutry,1090,5606,VD,46.516119,6.702551,VD02
3ec105b3-9c27-4b7f-8129-fb4a09d9413c,Bourg-en-Lavaux,1091,5613,VD,46.503367,6.721974,VD02
1212880e-f9a1-4678-a1f3-4c09edd1cbae,Belmont-sur-Lausanne,1092,5581,VD,46.526863,6.687281,VD01
cb4a47f3-4c3c-44f2-a9e1-15594e0dd467,Lutry,1093,5606,VD,46.513315,6.677415,VD02
7f1fc708-7bef-412e-bb4e-0c53a82c7923,Paudex,1094,5588,VD,46.508387,6.6736302,VD01
bc08c2d3-cbe9-4e97-834d-86420a2f9860,Lutry,1095,5606,VD,46.515086,6.698962,VD02
c4217759-2c16-48ae-a400-34502721199a,Bourg-en-Lavaux,1096,5613,VD,46.499065,6.7316973,VD02
622170e7-d62d-4195-95e7-e7175f9babab,Bourg-en-Lavaux,1097,5613,VD,46.500392,6.733847,VD02
838a99a5-e58e-44d9-b018-ec3c42d3d986,Bourg-en-Lavaux,1098,5613,VD,46.495067,6.746229,VD02
ab48858f-24fc-4add-b1d5-721578fb84f1,Morges,1110,5642,VD,46.51401,6.4931306,VD02
8baa3ae4-04f4-46e0-94f9-7d4e06ba1367,Morges,1110,5642,VD,null,null,VD02
726b181c-55a0-4781-ba0e-81bb672decef,Echichens,1112,5634,VD,46.526924,6.493396,VD02
a15669af-88ae-4a92-a422-de83a82c1381,Echichens,1113,5634,VD,46.546192,6.490415,VD02
8d74cffd-63d3-47ae-8789-556f052791f9,Echichens,1114,5634,VD,46.55421,6.461996,VD02
b89f5456-630e-4987-8e6d-c365164849f3,Vullierens,1115,5654,VD,46.573068,6.477375,VD02
63c81612-2923-4912-91a2-957952f0cc21,Cottens,1116,5478,VD,46.572465,6.453207,VD02
144215c9-7502-4926-b983-170d53639b1f,Grancy,1117,5485,VD,46.593785,6.463387,VD02
3db69eab-c703-47f0-970a-9bc53979ee4c,Bremblens,1121,5622,VD,46.543998,6.518788,VD02
ed02a59c-2ea9-4aab-89a1-69faff3cf3e9,Romanel-sur-Morges,1122,5645,VD,46.55617,6.508911,VD02
941a9ae8-f7f4-4334-906c-12c3b20dba3e,Aclens,1123,5621,VD,46.568259,6.510843,VD02
451ad48b-51b9-4045-9aca-07f05598ce31,Gollion,1124,5484,VD,46.585151,6.511818,VD02
8c9e679f-cbe7-46ec-8b6f-b7bc087dc05d,Echichens,1125,5634,VD,46.53191,6.474588,VD02
a829a1f4-c817-4113-8e96-16ebab30a858,Vaux-sur-Morges,1126,5650,VD,46.530833,6.463538,VD02
9245d36a-e095-4444-81f6-008478266d54,Clarmont,1127,5629,VD,46.545933,6.445828,VD02
a2397b52-4114-4ce4-bcba-8dfff8162021,Reverolle,1128,5644,VD,46.538109,6.43971,VD02
23b20edc-cfd9-40d0-a4c0-36f012e4ff1f,Tolochenaz,1131,5649,VD,46.501632,6.4771752,VD02
1447b077-fb95-4d83-aabd-dcf31332dba8,Lully,1132,5639,VD,46.500568,6.443697,VD02
bc4939a5-1876-4e35-a2a8-c5e8b10c99c9,Chigny,1134,5628,VD,46.513821,6.473592,VD02
4c60481e-7d4a-4477-bdc7-e237d0e91c79,Vufflens-le-Château,1134,5653,VD,46.513821,6.473592,VD02
612fc238-90bb-4274-a647-91aaf71ce8f0,Denens,1135,5631,VD,46.515855,6.452254,VD02
402c67cd-c0bf-4b4f-88e8-f7fc79f827ac,Bussy-Chardonney,1136,5625,VD,46.528814,6.440662,VD02
4d35779f-f44b-4aff-ab19-1126c53688d4,Sévery,1141,5500,VD,46.568625,6.440116,VD02
0e64fb20-7988-4ab1-81aa-459b07140e80,Pampigny,1142,5494,VD,46.586239,6.4219753,VD02
eacfdb44-32a1-427d-88e8-91b289535b0d,Apples,1143,5421,VD,46.554983,6.4165602,VD04
b6790183-b138-44f2-b75e-93110b4caf66,Ballens,1144,5423,VD,46.553149,6.377318,VD04
3dd65561-d741-433f-8c2e-f16b739e528b,Bière,1145,5425,VD,46.547824,6.3174853,VD04
817a4c0c-7b8f-4494-9207-78a1dae6daa9,Mollens,1146,5431,VD,46.577414,6.338158,VD04
8214f8e9-4247-4090-9c63-b668d4a27890,Montricher,1147,5492,VD,46.602411,6.369704,VD02
1cda093c-41f7-450d-955d-6e9cb15dea7a,Chavannes-le-Veyron,1148,5475,VD,46.624438,6.3931408,VD02
d6c21003-cb55-40a9-95ae-0bcf44017e1f,Cuarnens,1148,5479,VD,46.624438,6.3931408,VD02
a9d83165-379c-4629-9ff0-7a0fbd711b1e,L'Isle,1148,5486,VD,46.624438,6.3931408,VD02
16adc431-fb9a-4c38-bd82-5a7fdbdde433,La Praz,1148,5758,VD,46.624438,6.3931408,VD03
2bde6845-0a20-4e7d-a854-6fbed1d5ff6e,Mauraz,1148,5488,VD,46.624438,6.3931408,VD02
35624fc2-af2f-49d7-846d-2facf94a19b8,Moiry,1148,5490,VD,46.624438,6.3931408,VD02
215f5147-2213-46d8-b1f0-e4ffcbc93072,Mont-la-Ville,1148,5491,VD,46.624438,6.3931408,VD02
717dcb26-3709-4c33-9603-b4d48a567f15,Berolle,1149,5424,VD,46.56536,6.326259,VD04
08e4b4bc-53d7-41d0-82ac-ac27e4207618,Saint-Prex,1162,5646,VD,46.485439,6.447188,VD02
5a37f839-584e-4897-9261-74991afaf6d7,Etoy,1163,5636,VD,46.484237,6.4217436,VD02
f621a660-0118-4047-9c16-6e4faaa19315,Buchillon,1164,5623,VD,46.465948,6.412819,VD02
b9ac3201-128c-4253-9edc-87dea473a3e2,Allaman,1165,5851,VD,46.469439,6.393875,VD04
0c1de4b2-e6cc-445e-a75b-78c5c65efa18,Perroy,1166,5860,VD,46.470191,6.3590261,VD04
b655fb17-4c15-4335-a2ef-eddcc21f3ed9,Lussy-sur-Morges,1167,5640,VD,46.49606,6.444645,VD02
57761c7b-063f-4feb-aa5b-998f0c21db09,Villars-sous-Yens,1168,5652,VD,46.506377,6.426473,VD02
2680880e-acce-4611-8657-620af70416a7,Yens,1169,5655,VD,46.524228,6.409048,VD02
7b5f1f05-fc93-467c-ad8e-46725e3bb774,Aubonne,1170,5422,VD,46.490579,6.3851212,VD04
4c52aa1e-307c-4d03-a106-9a1bd9745f25,Bougy-Villars,1172,5426,VD,46.483594,6.348935,VD04
723989ba-714e-45d1-b3d4-cc2f49dc1cda,Féchy,1173,5427,VD,46.478812,6.3726881,VD04
16315ece-1f47-416a-a17d-a7a4449c2559,Aubonne,1174,5422,VD,46.491894,6.345857,VD04
af145bd6-0dbe-48d5-92b7-1d25057ab116,Montherod,1174,5432,VD,46.491894,6.345857,VD04
5683f928-86c2-43f5-a7ac-2d807e0448b6,Lavigny,1175,5637,VD,46.499284,6.403955,VD02
19c0fe14-c888-4b7d-a839-5714ff627f39,Saint-Livres,1176,5435,VD,46.516695,6.381852,VD04
29be4162-64d6-45dc-8109-6d0d4f340e39,Rolle,1180,5861,VD,46.457574,6.3315555,VD04
37f53e5e-53b5-4676-a6a0-f8d2c0ea4684,Tartegnin,1180,5862,VD,46.457574,6.3315555,VD04
c68433c4-5c47-4308-9a2c-fa233012b677,Gilly,1182,5857,VD,46.457345,6.300124,VD04
e270098d-e8a9-4824-9a43-36d1f857cbcf,Bursins,1183,5853,VD,46.452031,6.2862309,VD04
eec7afb1-d3cd-472b-ad85-bc70985d42b4,Luins,1184,5858,VD,46.439446,6.269118,VD04
c3845c05-05a2-4243-a057-2bccedd2e73a,Vinzel,1184,5863,VD,46.439446,6.269118,VD04
434486b7-e5d9-43f1-aa33-18f303e5cbd1,Mont-sur-Rolle,1185,5859,VD,46.475361,6.336313,VD04
4ccfdb16-9468-48fa-bbd7-4a19b59f03af,Essertines-sur-Rolle,1186,5856,VD,46.484656,6.315795,VD04
7ac58f45-2f4b-4f00-b34e-98924a91c8ab,Saint-Oyens,1187,5436,VD,46.494458,6.299171,VD04
b97874cf-478d-482c-aa2a-9319f43b6fad,Gimel,1188,5428,VD,46.526681,6.2893698,VD04
7c54af9c-16a7-4d65-9675-3e0413695405,Saint-George,1188,5434,VD,46.526681,6.2893698,VD04
7c35e2eb-0f5e-4725-84bd-0e18166097f4,Saubraz,1189,5437,VD,46.515617,6.324991,VD04
f31e90c1-568a-4e5a-aae2-0360d97ed875,Bursinel,1195,5852,VD,46.431822,6.289946,VD04
19bd6910-a1e9-424c-8007-eea2af65cb93,Bursinel,1195,5852,VD,null,null,VD04
f5d63f9b-4377-4418-9e70-4e3cee1f2798,Dully,1195,5855,VD,46.431822,6.289946,VD04
f3523dc7-2c1d-4af7-a051-28b1e323885f,Gland,1196,5721,VD,46.41975,6.2729116,VD04
c17d8ec1-4130-4ff6-9812-0a777ed45ee8,Prangins,1197,5725,VD,46.400709,6.2551076,VD04
7f7cd04b-4cfc-46ee-83f7-032ff482a499,Genève,1200,6621,GE,46.205774,6.1413935,GE01
152d2cc1-1fc2-42f2-9b4d-3d09bf67b9f6,Genève,1201,6621,GE,46.205774,6.1413935,GE01
4e3a41e1-c67f-4f35-a9df-b2cf790f798d,Genève,1202,6621,GE,46.205774,6.1413935,GE01
e349e05d-9925-4744-b4f8-5cce84ff637b,Genève,1203,6621,GE,46.205774,6.1413935,GE01
4460bfe9-4c4e-4199-add3-7f8076ceb769,Genève,1204,6621,GE,46.205774,6.1413935,GE01
2203798b-b9ab-4ab0-984e-d86a62cbbb2b,Genève,1205,6621,GE,46.205774,6.1413935,GE01
c0b1b1c0-6d90-48f2-9c09-fe20d07ad775,Genève,1206,6621,GE,46.208358,6.142701,GE01
9fd89278-2f69-418f-a40b-dc0d6fc6668b,Genève,1207,6621,GE,46.205774,6.1413935,GE01
108f0e10-2634-49e5-8ae8-cf42c1b0556a,Genève,1208,6621,GE,46.208358,6.142701,GE01
9919d8e6-401e-46be-a2bf-79bd3da2bdf9,Genève,1209,6621,GE,46.205774,6.1413935,GE01
2e4071ae-5879-4cf7-a275-2879ce0a0614,Genève,1211,6621,GE,null,null,GE01
0111b09a-e944-42cc-abec-d2c4bac8544f,Grand-Saconnex,1211,6623,GE,null,null,GE01
3fede0f1-6614-495d-a8df-d30b9b026441,Lancy,1211,6628,GE,null,null,GE01
55d9b9b5-6b8e-4296-a61e-f4c761727bfa,Meyrin,1211,6630,GE,null,null,GE01
e24de901-8635-4dbc-abc9-e051b805d2fc,Pregny-Chambésy,1211,6634,GE,null,null,GE01
61d7a854-3697-4dd4-bfe6-851f149595bf,Lancy,1212,6628,GE,46.182809,6.1205,GE01
17073da9-5f89-448c-85f6-874bdd92455a,Lancy,1212,6628,GE,null,null,GE01
3112de3d-0899-4fbd-8eb3-bcd962cf4287,Lancy,1213,6628,GE,46.182532,6.103622,GE01
39f0707a-e8c3-4925-8954-bb38b57ee9bf,Lancy,1213,6628,GE,null,null,GE01
ca9bff5c-9c6d-4bb6-82c5-05b9d37a3b8d,Onex,1213,6631,GE,46.182532,6.103622,GE01
fe750626-6e7f-4318-83fc-25ba114eb4b5,Vernier,1214,6643,GE,46.210741,6.0944412,GE01
3b1bec73-657d-4d12-9c62-3313eb22b2d1,Meyrin,1215,6630,GE,46.205774,6.1413935,GE01
77816d1e-1b8e-43df-ba5a-a808c65b920d,Meyrin,1216,6630,GE,46.210896,6.1180595,GE01
67a5c4ea-78ca-4a7a-b548-5ac10107e180,Meyrin,1217,6630,GE,46.232237,6.0788728,GE01
dee7c48f-b9ec-4b8a-9273-05a7ebbe6e14,Meyrin,1217,6630,GE,null,null,GE01
46c013fe-c5f5-4a49-981a-8232c7642b50,Grand-Saconnex,1218,6623,GE,46.23578,6.1189767,GE01
40e73ac3-e26c-435e-8c4c-0a5977c93c13,Vernier,1219,6643,GE,46.191968,6.1218787,GE01
7620f3b9-00df-4d12-a157-85fcc2a8a834,Vernier,1220,6643,GE,46.221174,6.107849,GE01
0198dfbc-b823-40de-adf7-89ce4d87c566,Collonge-Bellerive,1222,6616,GE,46.2314,6.1996072,GE01
4bbe16a7-3644-42ff-91d1-edd404d46fa1,Cologny,1223,6617,GE,46.21765,6.1852833,GE01
1c5d5b32-34a2-4228-8297-4410b37a2eaa,Chêne-Bougeries,1224,6612,GE,46.19356,6.1815026,GE01
32aa5df8-c032-475a-b152-b349c8e10502,Chêne-Bourg,1225,6613,GE,46.197391,6.1968239,GE01
a23b6e70-c9ea-480b-b1bd-69f3b33f3af4,Thônex,1226,6640,GE,46.196071,6.2044216,GE01
ea217286-4fe2-44a6-9da4-28e1c2c1eddc,Carouge,1227,6608,GE,46.180452,6.145072,GE01
8a831386-25f2-4997-a1cc-002b5639c3da,Plan-les-Ouates,1228,6633,GE,46.163948,6.1188431,GE01
4aeca43d-7b6b-4dcf-a43b-f395e090b8f5,Chêne-Bougeries,1231,6612,GE,46.188855,6.17799,GE01
877ef291-92a7-4f8a-b0f0-f30841a624b5,Confignon,1232,6618,GE,46.174236,6.0887889,GE01
6177ffa4-a4cb-4c8d-81ce-f9779495c3d3,Bernex,1233,6607,GE,46.178468,6.0681505,GE01
e38ae69f-689e-40cd-b459-9be5e8d19c55,Veyrier,1234,6645,GE,46.171975,6.15828,GE01
5e4ef8ed-4564-45f3-9a3a-144ca2d45bff,Cartigny,1236,6609,GE,46.177062,6.02879,GE01
db79bca6-e661-48d2-8099-7384c089b970,Avully,1237,6603,GE,46.167486,5.9982284,GE01
5a5e8925-0926-419b-9957-b126b99c9213,Collex-Bossy,1239,6615,GE,46.275893,6.117638,GE01
a690ec12-7038-40e1-8f4d-8255c1368338,Genève,1240,6621,GE,null,null,GE01
bef44121-5123-4000-be14-4c5a42c0c226,Puplinge,1241,6636,GE,46.210826,6.2319862,GE01
56b9956e-dff5-47ea-9ca6-ec6ad006b394,Satigny,1242,6638,GE,46.214078,6.036565,GE01
a55bb27e-6a4b-4840-9f5e-d927b082f1c1,Presinge,1243,6635,GE,46.218979,6.259671,GE01
6d8d87df-ed43-496c-b075-987d1defad68,Choulex,1244,6614,GE,46.226117,6.221099,GE01
66d8f95d-5079-47be-be52-8459eaf793ee,Collonge-Bellerive,1245,6616,GE,46.249268,5.937532,GE01
5f6431a0-62cd-4bc4-a620-7fcb5407c7a0,Corsier,1246,6619,GE,46.261396,6.213982,GE01
332f8d0c-70be-4113-bfc7-30c8e0b4f9ee,Anières,1247,6602,GE,46.274695,6.2330515,GE01
d6be192b-b05c-4337-a4f6-8921d4de8ecd,Hermance,1248,6625,GE,46.293566,6.2445547,GE01
38a5f4f8-3f6b-4ad8-bd03-68a4d196613f,Gy,1251,6624,GE,46.245581,6.267874,GE01
755f72c6-5269-478b-89c9-5b3c20b4237a,Meinier,1252,6629,GE,46.243011,6.2349258,GE01
8f061af7-f2e1-4cbb-98a2-4fc336855438,Vandoeuvres,1253,6642,GE,46.218975,6.2034941,GE01
76175a7f-0d9d-4e1f-86d0-cbf9946f6355,Jussy,1254,6626,GE,46.23967,6.278012,GE01
fc9ec08d-29da-4fa9-ae63-ad27cf4e70e2,Veyrier,1255,6645,GE,46.171631,6.1666652,GE01
36d6e689-6a85-4c32-ac0c-cd8b01d909e5,Troinex,1256,6641,GE,46.158838,6.1508494,GE01
98d110c4-a8ce-4a0f-8754-97caab6dfd62,Bardonnex,1257,6605,GE,46.143149,6.113698,GE01
50463b85-c79b-472a-b1f5-9fdee4eadc81,Perly-Certoux,1258,6632,GE,46.155963,6.084668,GE01
21beded1-7813-44e1-bd4d-2059f5aa6b81,Nyon,1260,5724,VD,46.386352,6.2262374,VD04
9f318a39-81ed-4abc-8b27-18a7bd36d9bd,Nyon,1260,5724,VD,null,null,VD04
b156b71b-a5fa-4b85-9989-f54febe64e0d,Le Vaud,1261,5731,VD,46.498096,6.2259536,VD04
87658611-4e15-42f0-b547-94f59eec3a2a,Longirod,1261,5429,VD,46.498096,6.2259536,VD04
fb055e15-85d7-4af5-abc2-3f0547002f4b,Marchissy,1261,5430,VD,46.498096,6.2259536,VD04
acef7575-0d6b-464b-a2a9-a6a64318a28e,Eysins,1262,5716,VD,46.381487,6.203942,VD04
6a213636-71b8-4ac9-bc64-a93e066d9eed,Crassier,1263,5714,VD,46.372818,6.167521,VD04
1222ba47-480b-4237-9461-182a7753dde6,Saint-Cergue,1264,5727,VD,46.449549,6.128801,VD04
82255a6d-333c-4f35-bc6b-7f02173d2b7d,Saint-Cergue,1265,5727,VD,46.466839,6.0889948,VD04
87844621-2a6c-4f1b-97da-e6f59291e4a8,Duillier,1266,5715,VD,46.409134,6.228512,VD04
b49906eb-0318-4ca7-ae94-c74d1fec2398,Coinsins,1267,5710,VD,46.419989,6.236938,VD04
b6d160ea-afb6-445f-8c82-5f7a551f22ab,Vich,1267,5732,VD,46.419989,6.236938,VD04
77986c2b-b89e-4524-87ed-a6207fe48f84,Vich,1267,5732,VD,null,null,VD04
a5dc88eb-8783-421e-9c82-eced3b34e7d2,Begnins,1268,5704,VD,46.471536,6.2651622,VD04
147444c6-a3ad-40e0-95d4-6397c9ee7420,Burtigny,1268,5854,VD,46.471536,6.2651622,VD04
21aa0359-a20e-4287-aebf-9e7c003097b4,Bassins,1269,5703,VD,46.489365,6.199102,VD04
f31f2af9-b6a9-4a51-b4f7-fe52322a42d1,Trélex,1270,5730,VD,46.418904,6.1965372,VD04
794a4322-3d27-4c6d-8263-1bd24c9e89e6,Givrins,1271,5720,VD,46.429028,6.199702,VD04
f762bab1-bb27-4aba-a4b0-76c70e315e7d,Genolier,1272,5718,VD,46.436273,6.2202478,VD04
9316f4c0-7fc3-49f1-836a-b9dc61215572,Arzier-Le Muids,1273,5702,VD,46.486374,6.178289,VD04
4d6af6e1-a8f5-4064-8351-73fce5c02b8f,Grens,1274,5722,VD,46.396556,6.1915304,VD04
2fae92b8-92f1-416b-94aa-c4934fc0e096,Signy-Avenex,1274,5728,VD,46.396556,6.1915304,VD04
4f260f9b-5921-49b8-863a-8c56ffc4a0e3,Signy-Avenex,1274,5728,VD,null,null,VD04
20d47d2d-168c-465b-9a3e-31f13db954ba,Chéserex,1275,5709,VD,46.408585,6.147611,VD04
25cc59ba-fe5e-48d5-9ca2-ce72ba23ed3d,Gingins,1276,5719,VD,46.426256,6.1379625,VD04
a270ea4a-9133-4f00-8eb0-ecdab29f042b,Arnex-sur-Nyon,1277,5701,VD,46.380997,6.1790512,VD04
d304ac9c-ad89-4ab1-8d4c-007de3ec9eba,Borex,1277,5706,VD,46.380997,6.1790512,VD04
eb8d07d8-8e34-42de-92f9-7e9612719254,La Rippe,1278,5726,VD,46.390237,6.120058,VD04
5b503db0-9d05-4617-b324-977f678876aa,Bogis-Bossey,1279,5705,VD,46.340063,6.1543048,VD04
0a354394-3016-4e94-a3ad-f68c661030d8,Chavannes-de-Bogis,1279,5707,VD,46.340063,6.1543048,VD04
d148b19e-4655-4d8c-ad2c-4a6b35d2f68c,Russin,1281,6637,GE,46.193173,6.013753,GE01
907cbfa1-1472-451c-902c-309ca9622e52,Dardagny,1283,6620,GE,46.198632,5.988675,GE01
e7d75a14-0514-483e-83fa-91e60168fed1,Chancy,1284,6611,GE,46.148131,5.979862,GE01
d93aa231-d169-4626-bedb-2ae65a0b77b1,Avusy,1285,6604,GE,46.148537,5.999065,GE01
5badb0af-fb82-4c0e-9576-53e743da5849,Soral,1286,6639,GE,46.147695,6.04707,GE01
9bc55620-c9e6-49a2-bfbd-48bf0d5e4f5e,Laconnex,1287,6627,GE,46.154745,6.033322,GE01
a46fcf61-8500-49ec-a923-9ba9f264e26f,Aire-la-Ville,1288,6601,GE,46.186249,6.041955,GE01
f06bc021-5458-4d12-8b32-1c8e4f6ec3c4,Chavannes-des-Bois,1290,5708,VD,46.29146,6.1454077,VD04
0fbbc173-165c-4435-bbfe-311580d11741,Versoix,1290,6644,GE,46.29146,6.1454077,GE01
ee07fb4b-691f-4fb6-9082-e74f7c96c825,Commugny,1291,5711,VD,46.320059,6.163428,VD04
63ddbefe-6ee3-4c39-bb1f-9a1935d7cbdc,Pregny-Chambésy,1292,6634,GE,46.238909,6.138445,GE01
69876d64-bf61-46c5-b159-1ce4776891e6,Bellevue,1293,6606,GE,46.257278,6.1364946,GE01
9baf8050-cbca-48d5-a305-61f70e1274a1,Genthod,1294,6622,GE,46.266446,6.153847,GE01
279a9be4-4cf9-4298-834b-8ba69c74e629,Mies,1295,5723,VD,46.302415,6.16047,VD04
b7816875-8884-4e6d-86e5-5f71ba2ca3f5,Tannay,1295,5729,VD,46.302415,6.16047,VD04
a978de53-97c6-46f1-a414-2e1a8d4a3361,Coppet,1296,5712,VD,46.321368,6.188891,VD04
3c692ef9-bd0d-4f62-9044-68218f32bfa5,Founex,1297,5717,VD,46.336465,6.1848828,VD04
18034645-49c8-41a9-9a07-ca748ac9770c,Céligny,1298,6610,GE,46.351672,6.190504,GE01
e6181588-ccf3-4982-afa2-61cd4dcc5440,Crans-près-Céligny,1299,5713,VD,46.364334,6.20516,VD04
03a0cbd3-84b5-482c-8251-e26b89239986,Vufflens-la-Ville,1302,5503,VD,46.574752,6.536832,VD02
1bd52536-12ce-4934-b1d9-9f9126c29761,Penthaz,1303,5496,VD,46.598757,6.541284,VD02
9d9fceee-80fe-4e33-af22-9cb259799218,Cossonay,1304,5477,VD,46.599179,6.4846647,VD02
c56055ca-eefc-4316-8781-59c04905d0cb,Dizy,1304,5481,VD,46.599179,6.4846647,VD02
b2c54e24-0cbc-48b3-989b-902c0b85dcea,Senarclens,1304,5499,VD,46.599179,6.4846647,VD02
1a3b8f2d-1b83-4ae3-a0c0-79dbe4f2bf43,Penthalaz,1305,5495,VD,46.612775,6.5290532,VD02
035a2b44-8b3a-4233-859a-ec104a6abf77,Daillens,1306,5480,VD,46.628558,6.549613,VD02
a474ba7d-c8a6-4afc-94b6-8aea33e802ce,Lussery-Villars,1307,5487,VD,46.346778,7.163295,VD02
9aa29d1e-7b2a-470b-b159-04b1e19b82bd,La Chaux (Cossonay),1308,5474,VD,46.620473,6.450495,VD02
6146061d-6a38-476d-96d3-29163d1f4da0,Eclépens,1312,5482,VD,46.651478,6.5428806,VD02
19b323eb-70d0-4e57-9096-b8f0df694929,Ferreyres,1313,5483,VD,46.654285,6.478313,VD02
0a22f31a-36cd-45cc-9eac-f50855b05de5,La Sarraz,1315,5498,VD,46.654501,6.5047545,VD02
e47a5a5d-9e24-4515-915f-80e83bcc8c9a,Chevilly,1316,5476,VD,46.641831,6.471855,VD02
8d27ad02-6cc3-4cca-b3e3-3be7facdc768,Orny,1317,5493,VD,46.66729,6.53565,VD02
9377d1d2-cfad-4adf-9085-429a01843870,Pompaples,1318,5497,VD,46.672777,6.516883,VD02
46dcd5f3-c358-43d0-8d18-ef263b2574ec,Arnex-sur-Orbe,1321,5743,VD,46.684973,6.515581,VD03
297bdf96-b22b-4b2e-965c-3f9e7ee31bd4,Croy,1322,5752,VD,46.685152,6.48278,VD03
b7479dc9-1faa-48a6-bd36-c683d6ac09e4,Romainmôtier-Envy,1323,5761,VD,46.684682,6.461046,VD03
bb7b7f93-b7df-44b8-b375-fbbec041b24d,Premier,1324,5759,VD,46.708039,6.441932,VD03
3fab5d2c-2739-41e1-adb7-cb45c5fbf7d3,Vaulion,1325,5765,VD,46.687029,6.384448,VD03
9d9047a6-0134-42be-a8d8-87d7d69d1cc3,Juriens,1326,5754,VD,46.68108,6.431743,VD03
a30b427e-d3e3-4315-9f05-1b1769628785,Bretonnières,1329,5748,VD,46.715272,6.470298,VD03
771206f4-b007-4e38-ae02-ff39c68d4984,Vallorbe,1337,5764,VD,46.707857,6.3713975,VD03
95a99501-d1c5-4b38-a450-d50d93b1b993,Ballaigues,1338,5744,VD,46.734906,6.4102941,VD03
cee737b1-c0a6-4b6e-bd54-cf3a6fe8bc4b,Le Chenit,1341,5872,VD,46.60108,6.237835,VD04
fe330b26-e322-48bc-bc1d-720f3bdab190,L'Abbaye,1342,5871,VD,46.667344,6.3097397,VD04
d680896d-1ccf-4cd6-b555-91592e9ac0dd,Le Lieu,1343,5873,VD,46.666869,6.3180559,VD04
a1926098-bc7a-45af-a0e1-627c897467ec,L'Abbaye,1344,5871,VD,46.63614,6.311316,VD04
2d043636-01ef-4fc7-8aa5-bfd076a53568,Le Lieu,1345,5873,VD,46.66169,6.279332,VD04
5e1e6321-e650-4bc5-99f5-ec1a2083e97b,L'Abbaye,1346,5871,VD,46.615355,6.259954,VD04
fa03ec70-ee11-46f7-ab0e-9025711bd795,Le Chenit,1347,5872,VD,46.620172,6.2334315,VD04
0b956fab-9e5a-4825-b689-a5ab1afaf174,Le Chenit,1348,5872,VD,46.582205,6.2186611,VD04
981d0476-4b54-4267-a32d-5767b28106ab,Orbe,1350,5757,VD,46.727011,6.5430424,VD03
410490a2-dfb4-4db9-bd8e-a7b965f4e7d2,Agiez,1352,5742,VD,46.71808,6.508968,VD03
887b6aa0-ac8a-4f01-a959-61d8c76282af,Bofflens,1353,5747,VD,46.701731,6.49527,VD03
debae3b9-0538-487b-93b1-9e7643241b8f,Montcherand,1354,5756,VD,46.733962,6.512095,VD03
30e40bec-9597-4630-b04c-3e65197e74ee,L'Abergement,1355,5741,VD,46.750606,6.498658,VD03
b958cf8b-0673-45c3-8edb-d2c9ac480fb9,Sergey,1355,5762,VD,46.750606,6.498658,VD03
7bf7db3a-1f92-4e0b-8ecb-a9438d437716,Les Clées,1356,5750,VD,46.732951,6.471261,VD03
b7a15916-82b6-4edf-9be8-c35930d5757c,Lignerolle,1357,5755,VD,46.746825,6.447387,VD03
2bed39dc-074c-414b-8f65-267ed794b637,Valeyres-sous-Rances,1358,5763,VD,46.747154,6.529419,VD03
aa9dd4d2-e228-4921-a82e-67ccf32baae3,Bavois,1372,5746,VD,46.681193,6.566261,VD03
49cb5050-e735-4714-b30b-6dbd9dc3e985,Chavornay,1373,5749,VD,46.706547,6.5689378,VD03
0a0f51c8-6208-4030-88cb-7ea803007ad6,Chavornay,1374,5749,VD,46.70035,6.604056,VD03
d79ba634-7199-43a2-be82-973d34a945a8,Penthéréaz,1375,5531,VD,46.678332,6.605868,VD02
f4c55f60-160d-49fa-be61-1eb994fcabba,Goumoëns,1376,5541,VD,46.646263,6.59021,VD02
99a2b3e2-fc97-42af-8a01-c7e24198f20c,Oulens-sous-Echallens,1377,5529,VD,46.644784,6.569388,VD02
10a3d6f0-c4cd-4dcf-bfcb-1c38ed414d22,Cheseaux-Noréaz,1400,5909,VD,46.774273,6.6371073,VD03
3c5a27cf-8804-44fe-9132-c8af3d42b598,Yverdon-les-Bains,1400,5938,VD,46.774273,6.6371073,VD03
920a531b-03f4-47f5-82aa-c8c64cdb7d40,Yverdon-les-Bains,1400,5938,VD,null,null,VD03
a6931b31-08bf-4873-9bd0-503d78f404ab,Yverdon-les-Bains,1401,5938,VD,null,null,VD03
f4d23fa9-d455-47de-81bd-98bfbc1aad7b,Cuarny,1404,5911,VD,46.77044,6.691131,VD03
63dcdf20-46c4-4595-83f1-78fb1ef6190c,Villars-Epeney,1404,5935,VD,46.77044,6.691131,VD03
9dbb0354-0b49-4ac9-b357-a97bb1af7bb4,Pomy,1405,5926,VD,46.755703,6.66845,VD03
0e95a806-aa49-48ea-9770-c414c206d29c,Cronay,1406,5910,VD,46.754431,6.699215,VD03
1d7f6886-8e9e-472b-b81e-c3af2c35c934,Bioley-Magnoux,1407,5903,VD,46.726582,6.7146267,VD03
892757c7-9a03-46b4-a827-29a6ef369002,Donneloye,1407,5913,VD,46.726582,6.7146267,VD03
541354f2-885d-46d5-a4ad-9520e26500b0,Donneloye,1408,5913,VD,46.734973,6.732908,VD03
b24cc7d6-6474-4236-9337-cc6317494d5c,Montanaire,1409,5693,VD,46.727376,6.744256,VD03
80765d35-6133-466a-b651-1d052cb19016,Montanaire,1410,5693,VD,46.703852,6.7589235,VD03
5296fbd5-a59c-4a20-aff5-1f0339817aa4,Prévondavaux,1410,2038,FR,46.703852,6.7589235,FR01
63ae7219-950f-4911-8d78-bd40eb4e31e7,Ursins,1412,5932,VD,46.734547,6.665983,VD03
1a991c08-b00f-4855-b54d-94ffa8aabcac,Valeyres-sous-Ursins,1412,5934,VD,46.734547,6.665983,VD03
606d47e3-d3ba-44cc-a85b-24145209cd81,Orzens,1413,5925,VD,46.715111,6.695104,VD03
87c1ad75-c65a-46ee-b135-b1562926b239,Démoret,1415,5912,VD,46.747617,6.756717,VD03
eda6ac0b-a400-4002-b701-9eb3d643ebd5,Molondin,1415,5921,VD,46.747617,6.756717,VD03
6cdd6b2b-35c0-4f75-bbfa-400ecb00e540,Pailly,1416,5530,VD,46.700051,6.675571,VD02
f5997753-90b5-4747-8e69-c6e40fb49c7a,Essertines-sur-Yverdon,1417,5520,VD,46.714233,6.64441,VD02
86171926-bd28-4794-ba8f-c6ca82d27f98,Vuarrens,1418,5539,VD,46.683532,6.645054,VD02
6c67852f-2990-499a-be1e-5627cf300df6,Fiez,1420,5556,VD,46.830572,6.609864,VD03
8fb9e922-4071-4bc8-9382-f342a23ce8e3,Fontaines-sur-Grandson,1421,5557,VD,46.843028,6.592088,VD03
34a51112-55f6-4487-86cf-ccbbb282bd61,Grandevent,1421,5560,VD,46.843028,6.592088,VD03
36b4c393-0bdc-441f-8ef7-a015d7303dcd,Grandson,1422,5561,VD,46.814626,6.644449,VD03
537cec3a-86ba-405d-817d-44c12d54cfa7,Tévenon,1423,5571,VD,46.842571,6.635012,VD03
ebebe820-01f3-44fc-8597-4b0c8e6fc706,Champagne,1424,5553,VD,46.835654,6.651905,VD03
d4ae9653-77f0-4e6c-ad83-25aa98ef3592,Onnens,1425,5565,VD,46.84819,6.673165,VD03
3b4341c1-5801-441b-bfa9-4ed9d4a995e0,Concise,1426,5554,VD,46.867068,6.7173821,VD03
b936164c-cd45-447c-8e11-e01ac7192a59,Corcelles-près-Concise,1426,5555,VD,46.867068,6.7173821,VD03
d986ab0d-cde7-4d72-97fe-42296dbc21cf,Bonvillars,1427,5551,VD,46.848709,6.669699,VD03
d5f09fb2-fc3b-4e09-b98c-b11d73adab4c,Mutrux,1428,5563,VD,46.880948,6.718037,VD03
ce47be17-6af5-4898-a8ea-9096210e5e2b,Provence,1428,5566,VD,46.880948,6.718037,VD03
032a8e62-eed1-4cea-b717-2828de0e4137,Giez,1429,5559,VD,46.810857,6.609285,VD03
305fc2ec-231e-4111-985a-01b330364fc4,Orges,1430,5924,VD,46.807656,6.583351,VD03
7c8c7d41-9e4b-411e-b234-d84c971fec9f,Novalles,1431,5564,VD,46.831939,6.594341,VD03
c3600577-9b7c-4357-b6d2-61dd6d1d1c84,Vugelles-la Mothe,1431,5937,VD,46.831939,6.594341,VD03
50aea1ab-d403-469e-b3a8-9b2dc0da9a1f,Belmont-sur-Yverdon,1432,5902,VD,46.737334,6.625156,VD03
20b1d7df-dfda-4ecc-9463-3b2ce08fc850,Yverdon-les-Bains,1432,5938,VD,46.737334,6.625156,VD03
3876c743-0086-46e7-90b9-faafe6aeda52,Suchy,1433,5929,VD,46.718904,6.602005,VD03
6666af8f-a525-46d7-a23e-b91cb189457d,Ependes,1434,5914,VD,46.742699,6.596881,VD03
3cff828b-c86f-4359-bb84-5f9166901e1e,Chavornay,1435,5749,VD,46.726949,6.578744,VD03
8c44e949-4fc7-4a35-8802-c905de9abc6b,Chamblon,1436,5904,VD,46.769062,6.605071,VD03
d1e2741d-2e6e-4523-ac5b-7eb81f5d2b1e,Treycovagnes,1436,5931,VD,46.769062,6.605071,VD03
5379eab6-1654-411d-89c6-f293bdd9d21b,Suscévaz,1437,5930,VD,46.76079,6.585026,VD03
990581ba-29ac-4063-a604-be5715d46ed6,Mathod,1438,5919,VD,46.759638,6.5649669,VD03
eddd1668-9285-4dc3-886d-3feba0909811,Rances,1439,5760,VD,46.765853,6.524146,VD03
d1426472-8907-4e85-afaf-8966b747690a,Montagny-près-Yverdon,1440,5922,VD,null,null,VD03
3cb7ce7f-dfed-4f0f-82bd-44d2350270e9,Valeyres-sous-Montagny,1441,5933,VD,46.798093,6.603897,VD03
b69303c9-70be-45d8-bdc1-b8a12fa0c4c7,Montagny-près-Yverdon,1442,5922,VD,46.789801,6.606159,VD03
446b5cdc-27f8-461e-bbb3-f9a0cb7da0dd,Champvent,1443,5905,VD,46.783517,6.563703,VD03
486ab21a-7eeb-4bda-9522-7e0a4da64b61,Vuiteboeuf,1445,5766,VD,46.803379,6.552492,VD03
b2106a0e-9d89-4a01-8479-08d32a7e851c,Baulmes,1446,5745,VD,46.787672,6.4994378,VD03
f148389f-7c2b-4e65-a1df-4b4aae71f896,Sainte-Croix,1450,5568,VD,46.82421,6.50105,VD03
4396289c-40fd-46de-a59d-49d7b3bc50c9,Bullet,1452,5552,VD,46.828968,6.538816,VD03
4dc56bd5-f3f0-4a01-a4fd-19c25486fbd3,Bullet,1453,5552,VD,46.842478,6.558819,VD03
4597ddb8-eccf-45c3-87bb-b3feba1bb400,Mauborget,1453,5562,VD,46.842478,6.558819,VD03
743658f1-5c7a-4dd4-a120-11e5747dacdc,Sainte-Croix,1454,5568,VD,46.841718,6.482612,VD03
f0b7dd8c-8283-4f16-add6-6c17e90c5ba2,Yvonand,1462,5939,VD,46.790352,6.7360518,VD03
85b59c95-86e1-4531-a1ad-d6e102c94755,Rovray,1463,5928,VD,46.785768,6.766508,VD03
878837ab-28fa-4eb7-ac2a-1ee406ca5aa3,Chavannes-le-Chêne,1464,5907,VD,46.76694,6.768111,VD03
95322259-6e2b-4d5d-bff5-9b5e410eba1a,Chêne-Pâquier,1464,5908,VD,46.76694,6.768111,VD03
f9746050-3c8e-4582-841f-799fb507ffcc,Cheyres-Châbles,1468,2055,FR,46.81149,6.785646,FR01
6aa09293-004f-410a-b687-7d65ee831374,Estavayer,1470,2054,FR,46.849645,6.8566753,FR01
f24d842b-0d01-45ff-b5eb-3d01d444b3df,Lully,1470,2025,FR,46.849645,6.8566753,FR01
0609e7bb-01e9-45a6-865d-4c33ff6c9476,Châtillon,1473,2008,FR,46.832977,6.822625,FR01
96b8de26-d723-42fa-b1a9-c440e6277196,Estavayer,1473,2054,FR,46.832977,6.822625,FR01
f5790488-7946-41f4-8c2e-3c209090ac2d,Cheyres-Châbles,1474,2055,FR,46.821238,6.810073,FR01
250850cb-7a82-42bf-b331-62ee4cb69efc,Estavayer,1475,2054,FR,46.781084,6.720421,FR01
4919350d-e5bd-4c99-9f61-c3ca1f50826c,Cugy,1482,2011,FR,46.809002,6.861591,FR01
c6aaddff-bd4f-4113-a234-1dd07e02ec5e,Cugy,1483,2011,FR,46.82679,6.863445,FR01
e319d51b-d00c-46a5-9866-86523fd84ae7,Les Montets,1483,2050,FR,46.82679,6.863445,FR01
c018c2f3-6eb6-49fc-9331-4dc1ea070b1c,Les Montets,1484,2050,FR,46.799433,6.8503169,FR01
e4db05e9-0941-466a-acd0-8b6d282ec5b6,Nuvilly,1485,2035,FR,46.780232,6.830705,FR01
643f5872-8498-4129-8dfc-4176ca6193f1,Estavayer,1486,2054,FR,46.731327,6.768336,FR01
277e9488-bc87-47f2-b407-d79eee7e514f,Estavayer,1489,2054,FR,46.79397,6.802546,FR01
2647f0df-66af-4f43-9494-dab102266875,Vucherens,1509,5692,VD,46.623673,6.775558,VD03
68bedb42-c4e0-4312-9c1a-1b6f799cd57e,Moudon,1510,5678,VD,46.642901,6.7781974,VD03
51c758d2-113f-4893-be0c-48df123a9a6a,Syens,1510,5688,VD,46.642901,6.7781974,VD03
0f7cfb92-57e7-40a3-965b-7d0ba0394a2f,Chavannes-sur-Moudon,1512,5665,VD,46.65919,6.813108,VD03
a6e0a0d0-a8ed-4054-ae4f-64838067f8f0,Hermenches,1513,5673,VD,46.63734,6.753961,VD03
d50455e4-da27-42aa-8c2b-94e8af07959d,Rossenges,1513,5684,VD,46.63734,6.753961,VD03
6a501277-afb0-4850-b884-5a8ec4fa8089,Bussy-sur-Moudon,1514,5663,VD,46.689729,6.809362,VD03
4e320b6f-e18a-40d4-9e51-89e552f0ce28,Montanaire,1515,5693,VD,46.696228,6.785907,VD03
7b855335-f8d0-4008-99aa-58a0c3bf08fc,Villars-le-Comte,1515,5690,VD,46.696228,6.785907,VD03
3bdafb93-3c9f-409a-8f4b-c93a11bf6255,Curtilles,1521,5669,VD,46.697767,6.843984,VD03
750947f9-be07-4d51-8f21-52c9af224580,Lucens,1522,5675,VD,46.707559,6.8142368,VD03
566a380b-18ae-4f4a-8d21-e97996fb8edc,Valbroye,1523,5831,VD,46.76433,6.886437,VD03
49304b76-ea0d-4a81-9318-32c438a1617c,Valbroye,1524,5831,VD,46.76067,6.901661,VD03
78033045-c942-4caf-bde7-a1be3ad63a26,Henniez,1525,5819,VD,46.649679,8.733607,VD03
cbf30dce-6039-48f9-bede-5bea3b7624c2,Valbroye,1525,5831,VD,46.649679,8.733607,VD03
2b5719c6-d7d2-4cde-8390-13cdfea06b78,Lucens,1526,5675,VD,46.722221,6.823914,VD03
7c6d8426-4b2c-493e-831e-ef2462fb6582,Surpierre,1527,2044,FR,47.658505,8.752827,FR01
85f87e45-d283-45e2-9d1a-e8fd3a1609fa,Surpierre,1528,2044,FR,46.739704,6.849903,FR01
c4ec9aab-6630-49c3-a1cd-74921225c13c,Cheiry,1529,2009,FR,46.753116,6.839812,FR01
f1d41750-9dfc-4b4b-8a2f-c16e8967641f,Payerne,1530,5822,VD,46.819143,6.9347425,VD03
5911d402-2726-45ef-94da-27b01680a0c8,Fétigny,1532,2016,FR,46.792397,6.912043,FR01
6144c8e8-90b9-4e67-9f23-58a233785021,Ménières,1533,2027,FR,46.784934,6.884994,FR01
2f258bfb-4f42-4b8e-9701-5a6acf5a8784,Cheiry,1534,2009,FR,46.773586,6.856818,FR01
2b60ebb2-75fa-46b6-9b93-25dfaeb8cec2,Valbroye,1534,5831,VD,46.773586,6.856818,VD03
54758705-6f7b-4cda-b548-efa7630c06db,Valbroye,1535,5831,VD,46.764909,6.821153,VD03
d12752bf-b84e-435b-8e42-365d3e911e46,Valbroye,1536,5831,VD,46.746177,6.819589,VD03
4ff8ece1-822c-48b4-8e2e-6c7bf3df372e,Champtauroz,1537,5812,VD,46.757145,6.783745,VD03
32e94c99-81e7-4d70-b59c-8a33093ce97e,Treytorrens(Payerne),1538,5828,VD,46.772986,6.801119,VD03
5e96c64e-05d9-4e0c-a5c4-40e9c4379cbf,Estavayer,1541,2054,FR,46.833606,6.86092,FR01
2343ae66-2329-4e8d-a013-0455752b5441,Sévaz,1541,2043,FR,46.833606,6.86092,FR01
d05c02fd-f8d4-473b-bc6f-617fe5052beb,Estavayer,1542,2054,FR,46.856665,6.910914,FR01
d09f9591-c41f-4f5d-ba40-ffb4390d4dee,Grandcour,1543,5817,VD,46.873824,6.932124,VD03
dab43e52-2243-4411-a561-da84686beb92,Gletterens,1544,2022,FR,46.900255,6.931024,FR01
74fe4b8a-32b9-434c-868b-d5d5171fdab4,Chevroux,1545,5813,VD,46.888696,6.906779,VD03
c318274c-f48e-4497-8c26-5dfdae685280,Payerne,1551,5822,VD,46.797449,6.941987,VD03
b692ff73-f513-45a8-ac24-8d602848b6a7,Trey,1552,5827,VD,46.774843,6.921809,VD03
88cc6b79-68a8-4991-a98c-e2a76f3d2ca7,Châtonnaye,1553,2068,FR,46.752828,6.938321,FR02
21100f27-1e64-4fc3-9d50-2a7d5c1b8b18,Villarzel,1554,5830,VD,46.742578,6.929186,VD03
7ad94e5f-7ae2-4ed3-acd8-83f06e8f4f44,Villarzel,1555,5830,VD,46.743982,6.906826,VD03
796fc73d-44c1-4850-be32-81f1254e2ee7,Corcelles-près-Payerne,1562,5816,VD,46.836773,6.966206,VD03
7c9aeda1-5af4-409e-bc27-8344160ef744,Belmont-Broye,1563,2053,FR,46.85493,6.989638,FR01
559b8c28-0a9e-458a-a974-beab25c5a09c,Belmont-Broye,1564,2053,FR,46.862642,7.0160693,FR01
b3fbf889-5110-4f5e-b948-6636f16f33a5,Missy,1565,5821,VD,46.874029,6.968963,VD03
9c1b01d7-9a0d-45ad-aea7-83ffd33dad81,Vallon,1565,2045,FR,46.874029,6.968963,FR01
c9866edf-6415-4b46-8bab-9509adcf4405,Saint-Aubin FR,1566,2041,FR,46.891611,6.903848,FR01
3ad8c7ec-5a06-4654-a3c4-87bf1885565b,Delley-Portalban,1567,2051,FR,46.914464,6.968416,FR01
dfdfd3b6-4841-400a-b6a8-5f5008f4166b,Delley-Portalban,1568,2051,FR,46.8994,6.9569282,FR01
3df0a82b-3b9f-4b8e-82ce-b3a649116605,Avenches,1580,5451,VD,46.884662,7.0383454,VD03
83f9548e-4d71-4ddb-a60d-29b6717efe96,Courtepin,1583,2254,FR,46.882019,7.078231,FR05
d60e263b-452b-4cea-88f9-93baa280c93d,Vully-les-Lacs,1584,5464,VD,46.904101,6.998655,VD03
244e5bb6-7293-49e2-b253-37cfe69ea984,Vully-les-Lacs,1585,5464,VD,46.908054,6.833008,VD03
aa9ce55f-2b33-4278-a7b4-f597f971511b,Vully-les-Lacs,1586,5464,VD,46.932357,7.036886,VD03
2a880780-4219-45d7-bbf7-5e7bae876c13,Vully-les-Lacs,1587,5464,VD,46.909053,7.018484,VD03
5892c94c-a792-4503-879c-09c720aa51a3,Cudrefin,1588,5456,VD,46.952141,7.0270575,VD03
d6649cc1-2384-4bb9-8b1c-5f88c4e3b7bf,Vully-les-Lacs,1589,5464,VD,46.929702,6.982166,VD03
e31346ce-d447-40d0-9b36-531d5fb8ae3f,Clavaleyres,1595,661,BE,46.894717,7.088361,BE01
a637a38a-9a3b-4179-8797-771056cf99bf,Faoug,1595,5458,VD,46.894717,7.088361,VD03
b7a98f4d-18cb-4578-bdeb-1953676acf13,Oron,1607,5805,VD,46.549122,6.835247,VD02
90270a8f-0f49-4ac2-8b59-f96993ada936,Chapelle (Glâne),1608,2066,FR,46.562115,6.862491,FR02
d32f3016-bda5-4cb8-b43c-f85eabcdd410,Oron,1608,5805,VD,46.562115,6.862491,VD02
22770640-b934-43b3-81bd-2c0b3472c8c9,Saint-Martin FR,1609,2335,FR,46.582988,6.8814,FR07
7718c700-3a47-4b5a-8114-7701ca0fe277,Oron,1610,5805,VD,46.561877,6.8053191,VD02
b280d537-7766-4469-8589-e831f008b880,La Verrerie,1611,2338,FR,46.6,6.93333,FR07
87560873-a749-4ff2-8d4e-bda7e41b9d0a,Oron,1612,5805,VD,46.544434,6.854078,VD02
91ac6c79-4c7a-409c-a7c7-c0bb397f8c31,Maracon,1613,5790,VD,46.553065,6.878638,VD02
a1004400-0e07-4ebd-9814-5a0e9d74a9d6,Granges (Veveyse),1614,2328,FR,46.524317,6.80516,FR07
657cb8c7-27b7-4827-a78f-f80397f1b65b,Bossonnens,1615,2323,FR,46.528939,6.8481431,FR07
3cca7e49-2576-48aa-9a4e-d767ad75d14c,Attalens,1616,2321,FR,46.512039,6.8574081,FR07
364f1457-e0e1-4b9a-868c-b577c674162f,Attalens,1617,2321,FR,46.535052,6.880472,FR07
3598bfd4-3731-4180-a2bb-e2203b7f6b01,Remaufens,1617,2333,FR,46.535052,6.880472,FR07
ad23dbe0-14ca-4488-bc1e-f2119091ddf9,Châtel-Saint-Denis,1618,2325,FR,46.521521,6.945905,FR07
27710976-84f1-4411-830a-e3e2f884f068,Châtel-Saint-Denis,1619,2325,FR,46.522506,6.943916,FR07
600544cd-e11d-4432-a955-35acba374b5d,Semsales,1623,2336,FR,46.569856,6.955708,FR07
a62c0d63-df4b-4924-8675-ec7530925bfc,La Verrerie,1624,2338,FR,46.597601,6.920266,FR07
29b51911-76b5-4d65-a1e2-c3febeb94e89,Sâles (Gruyère),1625,2152,FR,46.638724,6.990492,FR03
f59b1b0a-9dc8-4ce7-99e6-ab196848951a,Sâles (Gruyère),1626,2152,FR,46.650697,6.9419942,FR03
c0ad7c19-057e-4b2a-bf1f-04df28a4588b,Vaulruz,1627,2155,FR,46.614726,6.9862638,FR03
60d1dd82-45e5-44c3-b4ab-4416f265f284,Vuadens,1628,2160,FR,46.608402,7.0047086,FR03
16026ae2-030e-46fa-87a4-c4fc24b2986b,Bulle,1630,2125,FR,46.607527,7.0461463,FR03
286cf0bb-bea6-4503-8cd6-35633b1072fc,Bulle,1630,2125,FR,null,null,FR03
34560ade-e212-4c8f-bf6e-320878eacf19,Bulle,1631,2125,FR,null,null,FR03
e3dc5f10-b149-4d69-807a-0d4360e354c2,Riaz,1632,2148,FR,46.642273,7.0424345,FR03
bf787552-dc06-43d4-8e0d-9a2c7e035007,Marsens,1633,2140,FR,46.656244,7.049728,FR03
7cb60bf5-9211-4e14-bb5c-ce39392cd705,La Roche FR,1634,2149,FR,46.691269,7.158598,FR03
419d858d-f497-4920-9985-db0343913977,Bulle,1635,2125,FR,46.625008,7.0586295,FR03
46dd9a3a-d0b0-4651-a731-994faf7ade03,Broc,1636,2124,FR,46.600334,7.1192983,FR03
2539147c-0cb4-4544-9701-f800be4619f5,Val-de-Charmey,1637,2163,FR,46.598926,7.199832,FR03
f5167a50-cb9d-4c49-8672-5cd4053891ec,Morlon,1638,2143,FR,46.623573,7.086305,FR03
3b921953-f276-460f-a50f-4e36fd567e65,Sorens,1642,2153,FR,46.672535,7.044561,FR03
800ee40c-0b5e-4bc1-bd91-cecb6e86d6a9,Pont-en-Ogoz,1643,2122,FR,46.67729,7.07685,FR03
3f1d682e-e298-4c6b-bf46-2bda42c1f6f9,Pont-en-Ogoz,1644,2122,FR,46.685279,7.086251,FR03
7f9d876f-6cc9-47e7-a2e1-eb255261dc28,Pont-en-Ogoz,1645,2122,FR,46.699477,7.0830203,FR03
18470cbe-cb27-4587-9833-d62597137835,Echarlens,1646,2131,FR,46.648904,7.07688,FR03
b59ee876-9cfe-46bf-bd1f-59aafbf26518,Corbières,1647,2129,FR,46.65375,7.116222,FR03
4e471320-05b2-481c-97d0-b356df1e381e,Hauteville,1648,2137,FR,46.66819,7.130085,FR03
606e03b3-c9c6-4294-be57-a671f3ea22b2,Pont-la-Ville,1649,2147,FR,46.700951,7.110024,FR03
a965a1fa-32e3-485c-82db-6788df51341d,Corbières,1651,2129,FR,46.64487,7.116732,FR03
c35c3fb4-2f65-4501-8b5d-95100ee15259,Botterens,1652,2123,FR,46.624826,7.114274,FR03
54a5c194-4c52-4089-a09e-4f4bb69c521c,Châtel-s.Montsalvens,1653,2128,FR,46.617184,7.126975,FR03
3aedf4ed-aaa3-4d45-9e01-7f377864152a,Crésuz,1653,2130,FR,46.617184,7.126975,FR03
f45cbb43-86cd-4ca2-8048-480563355938,Val-de-Charmey,1654,2163,FR,46.664901,7.20093,FR03
668a584b-43b9-4f27-bfcc-33202a1b4238,Jaun,1656,2138,FR,46.605853,7.267483,FR03
cf2d7ebe-726e-4c2f-a0e0-e75168638c72,Saanen,1657,843,BE,46.565187,7.3074029,BE04
fa4bf8ec-ac7e-40ba-9036-03737906cb1d,Rossinière,1658,5842,VD,46.4661,7.063937,VD05
858f5e3b-9fdb-4bed-b7f8-6eeb18ee186f,Rougemont,1659,5843,VD,46.499224,7.214277,VD05
af280d2c-ef00-48ba-aba0-cf4b8b033d92,Château-d'Oex,1660,5841,VD,46.447343,7.137467,VD05
c078a7a2-1474-4a69-adf6-cd4624b9decb,Le Pâquier,1661,2145,FR,46.591326,7.03636,FR03
cd9a9657-4475-4090-95a7-11a20ca95297,Gruyères,1663,2135,FR,46.577701,7.080487,FR03
571cff18-d524-4631-92a9-4044c583f74d,Bas-Intyamon,1665,2162,FR,46.573161,7.099881,FR03
25a28b6d-f712-4163-80a8-59122b394ecc,Bas-Intyamon,1666,2162,FR,46.531556,7.106078,FR03
8b20fcdb-341d-4380-8be9-a1c8b2ec0e5d,Grandvillard,1666,2134,FR,46.531556,7.106078,FR03
8cddd391-b54b-454c-9857-b37375d69ab3,Bas-Intyamon,1667,2162,FR,46.572411,7.0835704,FR03
dc289a81-feb6-432e-b8ed-5f20b0813a0a,Haut-Intyamon,1669,2121,FR,46.482967,7.0535986,FR03
98d9ee39-84ad-4517-8216-8008be288258,Ursy,1670,2102,FR,46.623971,6.8515515,FR02
1969b0ee-03c7-4483-a82a-22d7f1d0628c,Auboranges,1673,2061,FR,46.582484,6.805051,FR02
ff0c3a63-b164-439b-af9d-54610aab946d,Ecublens,1673,2072,FR,46.582484,6.805051,FR02
f38ff0d0-e7fa-4bc5-b63e-d567c222d208,Rue,1673,2097,FR,46.582484,6.805051,FR02
7f38a200-cdd7-4bb5-9659-82b57806d4a0,Montet (Glâne),1674,2089,FR,46.639257,6.836437,FR02
296d8f83-e7e7-4779-888c-8ea46025f948,Ursy,1674,2102,FR,46.639257,6.836437,FR02
38430313-dbfa-49cd-98c2-d6e413d65430,Rue,1675,2097,FR,46.616428,6.8494078,FR02
d185212a-040c-4fac-91cd-974cccd8f712,Ursy,1675,2102,FR,46.616428,6.8494078,FR02
0b61826f-8cce-4ee5-8df2-633f24e3ee22,Siviriez,1676,2099,FR,46.659914,6.895357,FR02
c30a5744-78d9-4657-999b-4ace5f511439,Siviriez,1677,2099,FR,46.638405,6.87385,FR02
3c0e19b5-b756-44f4-bf0a-2e0978addcdb,Siviriez,1678,2099,FR,46.652193,6.8862851,FR02
5c7b82ba-e89e-4993-99bd-8af627dfefa0,Siviriez,1679,2099,FR,46.659577,6.911987,FR02
67f29179-0d09-4d7b-b966-3956d426ca92,Mézières FR,1680,2087,FR,46.699726,6.915691,FR02
0dba9b9a-5091-4e46-8ded-a3e4387415a9,Romont,1680,2096,FR,46.699726,6.915691,FR02
e8f547ac-9b53-4f51-9054-268467e89e91,Billens-Hennens,1681,2063,FR,46.685092,6.8875,FR02
0df7364c-262a-4784-a4ee-68e6b0dc3a6e,Dompierre VD,1682,5671,VD,46.692084,6.864827,VD03
17f4e39a-4f34-4fed-8770-b1a93ea1ff45,Lovatens,1682,5674,VD,46.692084,6.864827,VD03
dea5c98f-60e7-4d74-83e5-5fc96003f2c7,Prévonloup,1682,5683,VD,46.692084,6.864827,VD03
d2c1f84b-2611-4bb6-a08d-58ccba3a1c36,Valbroye,1682,5831,VD,46.692084,6.864827,VD03
ff084a8d-9455-42ec-aee5-6583899f879f,Lucens,1683,5675,VD,46.668609,6.858015,VD03
8760d5a4-2e8d-4ad4-b74a-32c7ec3abb84,Mézières FR,1684,2087,FR,46.683134,6.894757,FR02
eb2edd54-21e7-4ee5-bcf9-8348dbb6c0c3,Vuisternens-devant-Romont,1685,2113,FR,46.664546,6.940853,FR02
67b6c8b6-9850-4d67-997d-6db76d8bd838,Grangettes,1686,2079,FR,46.670081,6.973767,FR02
0d1a0937-1197-451b-a4a8-bf7d70b08da7,Vuisternens-devant-Romont,1686,2113,FR,46.670081,6.973767,FR02
d0535308-e6c4-46ad-b581-c1018d2fb28d,Vuisternens-devant-Romont,1687,2113,FR,46.634992,6.931891,FR02
d9847c87-c16a-42ee-92a6-f4da46370363,Vuisternens-devant-Romont,1688,2113,FR,46.636339,6.901256,FR02
be1e7fa4-3051-4457-b8d4-6bc7a5bdc592,Le Châtelard,1689,2067,FR,46.675505,6.989103,FR02
f3a0dd6b-fb36-4593-8215-47ca3a767b85,La Folliaz,1690,2116,FR,46.719884,6.958966,FR02
7e728e0c-05ec-4da9-bb44-465d6a80ddc6,Villaz-Saint-Pierre,1690,2111,FR,46.719884,6.958966,FR02
f327d049-0a35-4e58-9bfb-1f11c0c568c5,La Folliaz,1691,2116,FR,46.740865,6.963345,FR02
2ef62f05-b36b-4abf-939c-b6d68b75312d,Massonnens,1692,2086,FR,46.694908,6.971642,FR02
5d4e9ccf-93d8-4fca-8008-de967ce04d2f,Villorsonnens,1694,2114,FR,46.700006,7.0168179,FR02
995b4d6e-2588-42b9-99d5-342c3dde6a6c,Gibloux,1695,2236,FR,46.716864,7.016638,FR04
2a1aa15a-cebc-4adb-9b83-342f03bf53ef,Gibloux,1696,2236,FR,46.704202,7.055859,FR04
740d9db7-d22f-411f-b8ef-5d2db308851c,Vuisternens-devant-Romont,1697,2113,FR,46.620669,6.911166,FR02
12bc9a9e-17c8-4118-8070-acef06c401b2,Le Flon,1699,2337,FR,46.598417,6.8695617,FR07
3f42fb27-db2a-460e-b165-f131d38ce9c2,Fribourg,1700,2196,FR,46.80418,7.1597436,FR04
4c9fb708-bbe6-4240-8e5b-883d3586f09c,Fribourg,1701,2196,FR,null,null,FR04
59027be1-6e51-419d-89d5-ae207a807f6b,Fribourg,1707,2196,FR,null,null,FR04
2c9cb030-ce1d-44b4-87c7-d9ccaabbe709,Fribourg,1708,2196,FR,null,null,FR04
777d1028-6e80-461c-82c6-7912db56cabf,Tafers,1712,2306,FR,46.816313,7.2209787,FR06
cefe6b0d-4d0b-4533-8e68-3ca181319bb3,St. Antoni,1713,2302,FR,46.8186,7.2824659,FR06
7e97b6d8-1473-4923-b385-390271e1ecfe,Heitenried,1714,2296,FR,46.836301,7.3023915,FR06
a4c6caf7-4519-4dad-8815-a506263885d7,Alterswil,1715,2291,FR,46.792452,7.258036,FR06
70080855-5de1-46ff-9fbe-2ece8b760e46,Plaffeien,1716,2299,FR,46.663286,7.2817742,FR06
f8151564-b9be-483c-80de-de4c1872dbb9,St. Ursen,1717,2304,FR,46.786473,7.221503,FR06
31319b24-f33a-4c22-92ce-d6d1f29c5fac,Rechthalten,1718,2301,FR,46.764865,7.245521,FR06
cdceed72-e7d3-4984-9776-7807740e917f,Brünisried,1719,2292,FR,46.757378,7.275161,FR06
79917a1e-147c-4b03-8faa-06f65047e301,Plaffeien,1719,2299,FR,46.757378,7.275161,FR06
64f22c56-6868-4f9e-a926-4c634fa759e1,Corminboeuf,1720,2183,FR,46.802101,7.0962453,FR04
82b9df39-2262-4962-bef4-0c400e2170a2,Misery-Courtion,1721,2272,FR,46.854733,7.080615,FR05
6d203407-659d-4068-bb65-73e7272aad7a,Misery-Courtion,1721,2272,FR,null,null,FR05
129a6e4b-c5bf-4471-9053-1c75c607251b,Fribourg,1722,2196,FR,46.800331,7.17596,FR04
7465b9c7-3222-44c6-b7d1-2d8623037420,Marly,1723,2206,FR,46.776007,7.1492046,FR04
43f02d85-b59a-4568-90ae-9a2a7a6f7b5d,Marly,1723,2206,FR,null,null,FR04
c9c1e99c-1dd4-42e0-9d14-074cd18324e5,Pierrafortscha,1723,2216,FR,46.776007,7.1492046,FR04
e5bf5612-5a35-4ed4-8374-d3b4767d0e53,Villarsel-sur-Marly,1723,2230,FR,46.776007,7.1492046,FR04
9e744cd7-f0fd-476c-ae2e-8fd9ce589eae,Ferpicloz,1724,2194,FR,46.738657,7.141011,FR04
1e50979a-ae8a-44e6-873a-4f0545fca281,Le Mouret,1724,2220,FR,46.738657,7.141011,FR04
cf94d2ef-8350-4350-8319-2728f3b7b1b4,Senèdes,1724,2225,FR,46.738657,7.141011,FR04
038f19be-d855-4ad2-b3da-1cc406a15d7f,Hauterive (FR),1725,2233,FR,46.760601,7.095301,FR04
7ac59b1d-d1a8-4a93-b6cf-d12982552bc0,Gibloux,1726,2236,FR,46.727704,7.066274,FR04
8a692f07-7b6d-480f-93ad-3a81a2b737c0,Gibloux,1727,2236,FR,46.74142,7.08987,FR04
967e9a28-85cd-44ea-88bb-74acb7acef65,Gibloux,1728,2236,FR,46.722236,7.089078,FR04
88e8cc02-cc18-4092-9110-762886b17f01,Hauterive (FR),1730,2233,FR,46.74982,7.0836374,FR04
c7ca2c19-528b-4e16-973a-77f13162902d,Ependes FR,1731,2189,FR,46.072915,7.031874,FR04
6dd83889-bb79-4d31-8757-8d3aaee02d3b,Arconciel,1732,2171,FR,46.750028,7.120408,FR04
9056c8f0-4b3a-455c-8eed-aa89698fdc43,Treyvaux,1733,2226,FR,46.724215,7.1438302,FR04
6c3ece5a-7e1a-43a0-8651-daeb36fd0703,Tentlingen,1734,2307,FR,46.763994,7.198929,FR06
9f27d008-cb9a-4751-9031-204d2e0224e4,Giffers,1735,2294,FR,46.754979,7.224144,FR06
5ee982c8-979d-43d3-93eb-336a4244f7fe,St. Silvester,1736,2303,FR,46.7364,7.220626,FR06
80d67878-ae0b-47b7-87d5-7cc35a5107ec,Plasselb,1737,2300,FR,46.711152,7.2436592,FR06
c3407132-e167-4c75-8430-ba56a7790725,Guggisberg,1738,852,BE,46.719373,7.348328,BE01
c47dbbcd-bae9-409f-ac9f-52c398e30b1a,Neyruz (FR),1740,2211,FR,46.76518,7.064559,FR04
1b5a4d85-4579-475c-9417-e39577bc34fa,Cottens (FR),1741,2186,FR,46.750917,7.036656,FR04
277462d9-46c0-4cbb-8b21-b8d07112d349,Autigny,1742,2173,FR,46.737294,7.026557,FR04
716d99dd-3cd6-4f16-af12-6d0f594acb15,Chénens,1744,2177,FR,46.742321,6.997438,FR04
ad9f6ee8-2bef-4b8c-900a-479c8c36c0e0,La Brillaz,1745,2234,FR,46.759065,7.004445,FR04
b314d8bd-2fa7-4411-a494-75635cb0bbc4,Prez-vers-Noréaz,1746,2221,FR,46.785851,7.014549,FR04
4de103fc-9f44-4bf2-bb61-ad80b7270ef0,Corserey,1747,2185,FR,46.770981,6.98869,FR04
ba04a52e-b8c2-4015-aea2-c94e4c1a7186,Torny,1748,2115,FR,46.77063,6.966834,FR02
4fafe10d-7ce3-46a1-ac41-a17255e770e4,Torny,1749,2115,FR,46.767654,6.949336,FR02
2657e9b5-b72e-4f87-8cae-5e149823b412,Villars-sur-Glâne,1752,2228,FR,46.794358,7.1251367,FR04
68b6d885-68d9-4f89-9aa7-2c99c99e4bf6,Villars-sur-Glâne,1752,2228,FR,null,null,FR04
bedd6c15-7dcb-46fa-9059-f2d45cfaa7cf,Matran,1753,2208,FR,46.783914,7.0910044,FR04
b32822f8-d651-482b-8b4c-8c34682ff78a,Avry,1754,2174,FR,46.781159,7.0962977,FR04
9100728d-7ed7-4195-9b0e-217cdf4e02f7,Avry,1754,2174,FR,null,null,FR04
fa7d7f5f-d4d9-4925-ad3a-6c6cf68757e2,La Brillaz,1756,2234,FR,46.773683,7.022437,FR04
f371f09c-81b6-4579-b87d-df27a41f67c8,Noréaz,1757,2213,FR,46.802212,7.0365469,FR04
9d6c8c67-43d5-4769-87a2-c86b8765086f,Givisiez,1762,2197,FR,46.812728,7.1255803,FR04
fad5fdc3-398e-43f2-b721-c7caba4a6505,Granges-Paccot,1763,2198,FR,46.823708,7.1483591,FR04
d243e780-318a-4ca5-ad02-ee623a11e0f1,Grolley,1772,2200,FR,46.834722,7.0658765,FR04
89cabdad-cc62-44fd-9108-ce7febe27a15,Ponthaux,1772,2217,FR,46.834722,7.0658765,FR04
0d6d1a43-ee27-4ae9-92fa-e86f9e569a00,Belmont-Broye,1773,2053,FR,46.833119,7.023145,FR01
1f22a6c1-88fa-47ac-b4be-fdcf89326ba6,Montagny (FR),1774,2029,FR,46.818335,6.977285,FR01
b3103bcc-22a5-449f-8206-c0dc158592fb,Montagny (FR),1775,2029,FR,46.783288,6.9843883,FR01
d40c7093-6042-4830-92dc-43d2a84a2dfd,Montagny (FR),1776,2029,FR,46.816224,6.9771194,FR01
bb4fb84f-43e9-4eef-86e3-25f6efeb8915,Belfaux,1782,2175,FR,46.828733,7.0950408,FR04
093bfcbf-da2c-4c2e-b116-10f13627e152,La Sonnaz,1782,2235,FR,46.828733,7.0950408,FR04
6e451e3e-20a6-4f66-9f7a-ba277fbe848d,Courtepin,1783,2254,FR,46.859837,7.15878,FR05
2e740a74-1d7d-4c9f-9d6e-ef1a263e811a,Courtepin,1784,2254,FR,46.864309,7.1262774,FR05
63400ec8-b80c-4fda-a114-74260a33dddf,Cressier,1785,2257,FR,46.897081,7.13546,FR05
3168b4f5-d1cb-4a87-883d-51250e7477b8,Mont-Vully,1786,2284,FR,46.97103,7.1105984,FR05
d655974a-2030-440a-a7ad-fcf233132aeb,Mont-Vully,1787,2284,FR,46.941564,7.049398,FR05
a9ce0a04-1080-4c64-a93e-3a15ece8e7bd,Vully-les-Lacs,1787,5464,VD,46.941564,7.049398,VD03
53e260d5-52db-4ff3-90d6-863dfd34b7cb,Mont-Vully,1788,2284,FR,46.953854,7.09891,FR05
06ac07fc-6e40-492a-a98a-599a103bfd6c,Mont-Vully,1789,2284,FR,46.95,7.069387,FR05
351e8ba0-63e0-412c-98cd-af6f3fe9268b,Courtepin,1791,2254,FR,46.871941,7.131064,FR05
7b40fce6-ed71-4165-8018-b7dd3fe12d4a,Gurmels,1792,2262,FR,46.862963,7.1498264,FR05
57ce438a-1c62-4ffa-afa8-9620c502aea6,Murten,1793,2275,FR,46.903673,7.167655,FR05
5c3a2a96-253e-42f8-b017-88025dcbb932,Murten,1794,2275,FR,46.909391,7.151784,FR05
dd3329b2-b213-4c64-af00-9238f57ab5ea,Murten,1795,2275,FR,46.891513,7.108923,FR05
b31a02da-7f3f-4428-bec9-608ccb60d2d8,Courgevaux,1796,2250,FR,46.905133,7.103852,FR05
f662f0ff-e6e7-4927-9c7e-b18d33ad6340,Münchenwiler,1797,669,BE,46.907758,7.123924,BE01
007f745b-820f-410c-9da4-54fd4aa2ec78,Vevey,1800,5890,VD,46.464232,6.8480469,VD05
cd13e5e7-936a-460a-9b1a-353497eb3a04,Vevey,1800,5890,VD,null,null,VD05
4e0110b3-1de9-4a58-bf57-133dca0badae,Chardonne,1801,5882,VD,46.48211,6.83138,VD05
1075280f-ac46-4555-a4ee-2e6b5b15e157,Corseaux,1802,5883,VD,46.471045,6.8282728,VD05
1786abf9-adb5-42df-a881-88ca6356ada5,Chardonne,1803,5882,VD,46.488605,6.8216035,VD05
5c1e284e-61fd-4101-9ad2-9d89d9cad671,Corsier-sur-Vevey,1804,5884,VD,46.494413,6.8709996,VD05
2d9864db-a17f-4629-ba87-a37fe8f60179,Jongny,1805,5885,VD,46.487613,6.8465444,VD05
f62b882e-12fc-4a94-afcd-d7e38645b766,St-Légier-la Chiésaz,1806,5888,VD,46.463956,6.8820762,VD05
149ee9c8-c490-4331-91e0-8a265b25b9b2,Blonay,1807,5881,VD,46.47787,6.9219711,VD05
d2b35ee0-a429-4b6a-9a97-5dfb5481863f,Corsier-sur-Vevey,1808,5884,VD,46.503485,6.88124,VD05
685eb928-6586-49d3-9f24-713358227a7d,Corsier-sur-Vevey,1809,5884,VD,46.482776,6.864987,VD05
00500bbc-aca9-45c9-8276-b9cc207e47fb,Vevey,1811,5890,VD,null,null,VD05
29a6b0fc-a8f3-4aa9-b9a2-bc56feaf2728,La Tour-de-Peilz,1814,5889,VD,46.454904,6.8693519,VD05
62931f2b-56f0-4cb2-9b1b-05b9f8aa53a6,Montreux,1815,5886,VD,46.440945,6.890805,VD05
457c37f5-fc01-4aec-a128-3dfe9c863e6c,Montreux,1816,5886,VD,46.449077,6.89164,VD05
820d1f20-8b9a-4dfa-a636-fa6237b7ae88,Montreux,1817,5886,VD,46.457725,6.9011,VD05
2d60461b-4ff0-4371-bb2e-cb794d70b932,Montreux,1818,5886,VD,null,null,VD05
2f5ca058-f964-4123-9268-2d30c24e9ec6,Montreux,1820,5886,VD,46.451794,6.9407902,VD05
0dbfab7f-93d3-4dcb-98a2-bd128d3ef0d3,Montreux,1820,5886,VD,null,null,VD05
e763f2ab-c0b6-422e-b53b-b58f4eca4ae7,Veytaux,1820,5891,VD,46.451794,6.9407902,VD05
11e94ded-c6d1-40a4-870b-efa712722cc0,Montreux,1822,5886,VD,46.443545,6.911375,VD05
c33c1e4d-7fe5-4988-9086-51a979e81e98,Montreux,1823,5886,VD,46.414038,6.924678,VD05
233c857a-40a3-40f0-ac8d-f000e4153d8a,Montreux,1824,5886,VD,46.433459,6.9320994,VD05
8f78e8ad-e4a7-46df-a940-1a70ec9d8106,Montreux,1832,5886,VD,46.44888,6.91388,VD05
5b9213f7-143e-4548-a4bc-fbbc9acae2fa,Montreux,1833,5886,VD,46.449441,6.9515822,VD05
6cc66419-f4c6-420e-ba23-44c467871e56,Villeneuve,1844,5414,VD,46.403846,6.968948,VD05
83a5ff21-f0d8-47ba-8ab9-7fce48447090,Noville,1845,5408,VD,46.383023,6.8961335,VD05
2357e4b9-75ae-4c67-91b4-2b7330521d62,Chessel,1846,5403,VD,46.349049,6.894606,VD05
6e53bd75-7f17-4b17-9d3a-81e1a6a7dc1b,Rennaz,1847,5412,VD,46.375443,6.916829,VD05
783a5bf1-0f43-499f-bfd6-abe3edb7a64e,Roche,1852,5413,VD,46.356976,6.843875,VD05
a6f62fef-0c7c-44db-999f-35b5daa7e8eb,Yvorne,1853,5415,VD,46.338129,6.95034,VD05
253ba01d-a179-4af2-a275-0836c39267b5,Leysin,1854,5407,VD,46.352533,7.0110751,VD05
4e235ee1-cc57-4f30-87ab-73e78ad87fd5,Corbeyrier,1856,5404,VD,46.360438,6.973547,VD05
8935925d-fc9b-444d-af13-407a0d72c461,Aigle,1860,5401,VD,46.31503,6.9723877,VD05
f29a4b1f-b122-4cb1-ab97-e45c81bb4f3a,Ormont-Dessous,1862,5410,VD,46.383669,7.0592096,VD05
1a6e0e06-051b-43c0-a99f-037d66443865,Ormont-Dessous,1863,5410,VD,46.367055,7.0484688,VD05
b62ff853-8b17-43dd-8066-88964f566deb,Ormont-Dessus,1864,5411,VD,46.353724,7.131035,VD05
660c0c91-1a3c-4e6e-bc96-25468afbf450,Ormont-Dessus,1865,5411,VD,46.293055,7.2310715,VD05
85e99133-8479-40ce-ae7c-23aa971ddc2d,Ormont-Dessous,1866,5410,VD,46.351873,7.071397,VD05
5ec1b765-0510-432f-9121-001d511ed516,Ollon,1867,5409,VD,46.295976,7.0201854,VD05
0addbf8e-c0f9-44a3-80b1-fa008ed28a04,Collombey-Muraz,1868,6152,VS,46.263243,6.9520674,VS08
cc8d8e2b-b51d-41d5-909d-079dae4737e0,Massongex,1869,6215,VS,46.234523,6.9824443,VS08
36fe819e-2833-4d9a-aa1a-219345528423,Monthey,1870,6153,VS,46.240403,6.915184,VS08
a851b3b0-14fd-43c6-b2a2-5fd714a1ad10,Monthey,1870,6153,VS,null,null,VS08
a005a6cc-5e5b-4686-9789-3b5f94278970,Monthey,1871,6153,VS,46.238503,6.954794,VS08
8e3f3c05-f292-44df-96eb-3b1ee1630431,Troistorrents,1872,6156,VS,46.232821,6.885231,VS08
53ece7cf-82b7-4ab1-aae9-7ae2d1e8a6b0,Val-d'Illiez,1873,6157,VS,46.191702,6.8889405,VS08
4dff2551-2ebf-4425-b6ec-a885696ba6cb,Champéry,1874,6151,VS,46.158793,6.8458276,VS08
037e807f-acd5-47a0-b486-9aeada90a061,Troistorrents,1875,6156,VS,46.232878,6.8495326,VS08
69f6cb3d-52e8-48c5-bec7-2d21452ca83a,Bex,1880,5402,VD,46.255611,7.0889668,VD05
f85699bb-80ed-48a4-a60e-3b42957138c5,Gryon,1882,5405,VD,46.279418,7.094726,VD05
a992d676-1d1a-446b-8771-6552008de936,Ollon,1884,5409,VD,46.280989,7.0089278,VD05
01636d6d-cc89-4886-9990-3efcadae1ff0,Ollon,1885,5409,VD,46.299236,7.0558515,VD05
b40aee04-a280-47b5-a9ae-8a58c8186ba2,Saint-Maurice,1890,6217,VS,46.198071,7.009492,VS08
77988e15-fbd4-4539-a67c-9f829794f3e0,Vérossaz,1891,6220,VS,46.20116,6.96658,VS08
89905d06-28fd-4f52-93d2-f0b89a114da2,Lavey-Morcles,1892,5406,VD,46.199861,7.042983,VD05
80da8911-b657-47af-9ce5-411676b7a68e,Collombey-Muraz,1893,6152,VS,46.279117,6.926319,VS08
6b06efd6-e56e-4904-8853-d208d9b22fc6,Vionnaz,1895,6158,VS,46.307759,6.8712836,VS08
145a04f7-07ae-4f4a-b503-da56d56132ca,Vouvry,1896,6159,VS,46.335965,6.8491742,VS08
7c00b7b2-8f31-4f51-83dc-351395294722,Port-Valais,1897,6154,VS,46.367655,6.859508,VS08
156882e6-2fba-472d-8f68-78e190c7305f,Saint-Gingolph,1898,6155,VS,46.370151,6.804453,VS08
763ffb0d-57d7-4230-ab66-cda01b733025,Vionnaz,1899,6158,VS,46.320309,6.87658,VS08
2e60cde7-ae15-43ce-b5eb-594225acc475,Evionnaz,1902,6213,VS,46.14821,6.9481291,VS08
a5771e69-f2ba-47fa-94f5-fb70f258c753,Collonges,1903,6211,VS,46.173387,7.050894,VS07
920ca8c6-0788-45fe-b50c-07d3006d6717,Vernayaz,1904,6219,VS,46.138045,7.0318674,VS07
bad940da-6573-4101-8f88-4cf8883accb4,Dorénaz,1905,6212,VS,46.1511,7.057486,VS07
021fee06-0fa9-40b4-adba-a152ca835435,Charrat,1906,6132,VS,46.121336,7.136735,VS07
b9395221-00a3-4cb9-8cb2-769047c4b3f0,Saxon,1907,6141,VS,46.13626,7.1842901,VS07
6f90b99a-6660-44b2-9ee3-9520e1d93bb0,Riddes,1908,6139,VS,46.143016,7.2379945,VS07
11fa02c4-b0cf-4664-8b18-5e7a1d7eec1e,Chamoson,1911,6022,VS,46.198505,7.1653073,VS06
bce2bc0b-0ea7-4cb3-a030-6d349247bd18,Leytron,1911,6135,VS,46.198505,7.1653073,VS07
68e0317f-3fe2-45dc-b37b-d5a5c7c0e5f3,Leytron,1912,6135,VS,46.200196,7.1558725,VS07
e204121f-39a5-421d-8c51-161143acfa4f,Saillon,1913,6140,VS,46.177498,7.1586642,VS07
9771d092-c2a2-4c36-8932-738c23f72759,Isérables,1914,6134,VS,46.149152,7.259091,VS07
2e53361e-aad7-491a-a26b-b1ca702a48b7,Riddes,1914,6139,VS,46.149152,7.259091,VS07
11bd61ce-1832-4921-a969-b7ec5f0366ec,Riddes,1918,6139,VS,46.144805,7.232991,VS07
79e9918f-f524-4435-9fdd-916c75b37124,Martigny,1919,6136,VS,null,null,VS07
c12086d1-71d0-4d56-b9a3-e2a2b9108c37,Martigny,1920,6136,VS,46.10723,7.0808325,VS07
c0555298-0bba-41a1-90ab-61c64bbbf6af,Martigny,1920,6136,VS,null,null,VS07
caf06f3d-382a-4cad-9690-6e681ce0f5fb,Martigny-Combe,1921,6137,VS,46.082144,7.1002995,VS07
0114b361-f956-4a90-a9b4-4885f211a7a0,Salvan,1922,6218,VS,46.110271,6.9597877,VS07
a6b8ca4f-ebc8-4060-86f4-d113c0a2ed87,Salvan,1923,6218,VS,46.119519,6.998924,VS07
3d58609b-c0c0-4970-b708-5c3929f0a12c,Finhaut,1925,6214,VS,46.071529,6.946639,VS07
578b561e-8915-4464-81ac-70c5968fea0c,Fully,1926,6133,VS,46.157528,7.1117436,VS07
c4221132-f032-439c-b4cc-117cf23c02cb,Vollèges,1927,6036,VS,46.077431,7.10281,VS07
62eef289-c840-4db2-a92e-912d7b4b9f14,Martigny-Combe,1928,6137,VS,46.095956,7.044956,VS07
dcf9394b-9ac9-4168-b869-885ca57a5587,Trient,1929,6142,VS,46.039548,6.998798,VS07
e8c6e7c8-e60f-4946-ad1a-d25ccd1abbdb,Bovernier,1932,6131,VS,46.06419,7.082431,VS07
d8410cb3-87a4-453f-ac52-f5348781e5ae,Sembrancher,1933,6035,VS,46.069374,7.1456494,VS07
bf440dc0-4b67-48d2-82c9-6bd4dd9c55cf,Vollèges,1933,6036,VS,46.069374,7.1456494,VS07
6df54757-deef-406c-b08c-af1290329f93,Bagnes,1934,6031,VS,46.067126,7.2150966,VS07
3d32bcea-a78b-4754-a688-76f9d6fb8194,Bagnes,1936,6031,VS,46.100141,7.2252806,VS07
16b11096-ab71-4827-bc42-8c5328c80ef7,Orsières,1937,6034,VS,45.972252,7.1013978,VS07
f2a6d773-4dc1-4b04-97e6-47f280342524,Orsières,1938,6034,VS,46.036265,7.1130649,VS07
55a25e7f-d799-4b26-b291-a64abc18814b,Vollèges,1941,6036,VS,46.092184,7.156268,VS07
be7842b8-649e-4f4a-8af5-db9ff5ce1a14,Vollèges,1942,6036,VS,47.512984,9.266452,VS07
725ec148-5866-4bee-ac9d-e940d1f09418,Orsières,1943,6034,VS,45.980514,7.1406116,VS07
8d4f67ad-fa92-4097-ad9c-9505ba8f1f71,Orsières,1944,6034,VS,45.916726,7.104615,VS07
4792b930-c4a2-4a0d-a856-7127c591fcbc,Liddes,1945,6033,VS,45.980234,7.188409,VS07
41f3c5d1-3d1e-4af6-8133-18154f735d9a,Bourg-Saint-Pierre,1946,6032,VS,45.923083,7.210719,VS07
1000ce18-20a7-40d6-ae0e-6937c96916e9,Bagnes,1947,6031,VS,46.066042,7.233223,VS07
bb982ba2-226e-468d-b419-beb77c15ba1a,Bagnes,1948,6031,VS,46.033925,7.2945898,VS07
58a32d32-4055-4b93-910b-aedbe0fbd873,Sion,1950,6266,VS,46.230436,7.3659863,VS06
798ba37e-3663-45a8-9525-8ea0835b526d,Sion,1950,6266,VS,null,null,VS06
052420fb-47f4-4fdc-8535-142440c4781f,Sion,1951,6266,VS,null,null,VS06
353b786e-a391-433d-8237-1967b9a2f514,Chamoson,1955,6022,VS,46.215044,7.1970604,VS06
74415a35-06a8-4ce2-a5de-4f6cab2681fc,Ardon,1957,6021,VS,46.230066,7.237855,VS06
3d93a880-0765-4da2-922b-cf23656c02f9,Saint-Léonard,1958,6246,VS,46.255381,7.425407,VS06
b9875fb7-9b73-4653-b95c-e3d4f00e60d5,Sion,1958,6266,VS,46.255381,7.425407,VS06
0ac67aa2-29d4-4d86-ba6c-3e2f5c27c677,Mont-Noble,1961,6090,VS,46.21101,7.434863,VS06
3221611a-d59c-4b97-be50-8190893caba0,Sion,1962,6266,VS,46.224655,7.30919,VS06
8fe7f8d0-c8ec-42fe-9596-828ee0365ede,Vétroz,1963,6025,VS,46.225828,7.2705708,VS06
6fb9bed5-041d-4a27-b2f2-c5b7bbd3463a,Conthey,1964,6023,VS,46.2725,7.2547287,VS06
0263b62b-151b-4b8c-b6b7-494eb3f4ab94,Savièse,1965,6265,VS,46.309342,7.3113917,VS06
bd54e1a0-d1c4-4ca9-8e1b-f9e333343a1a,Ayent,1966,6082,VS,46.327959,7.4102366,VS06
8472d36d-f97f-4bc7-b43d-615561ee0937,Ayent,1966,6082,VS,null,null,VS06
596bc25e-d749-4882-a2f6-f9249b3e06ab,Sion,1967,6266,VS,46.233583,7.3988387,VS06
60dda581-573a-487a-9cad-1a434a56040a,Mont-Noble,1968,6090,VS,46.193562,7.458064,VS06
9773dc97-563b-4aca-8357-5fedef59cd83,Saint-Martin,1969,6087,VS,46.158064,7.457268,VS06
d5e64bdf-661e-4aaa-840f-738cc6ab7e2a,Grimisuat,1971,6263,VS,46.255965,7.3808593,VS06
55921a37-e62d-4cc8-b92d-550e37d00d08,Ayent,1972,6082,VS,46.296981,7.400421,VS06
25039a8c-d6ca-4363-a7d2-f57cc35dd468,Mont-Noble,1973,6090,VS,46.207798,7.47582,VS06
e6fcf4e2-543b-485b-8558-c6401959aa9f,Arbaz,1974,6261,VS,46.298611,7.375556,VS06
83dce516-d957-4020-842d-169724100824,Conthey,1975,6023,VS,50.530128,5.41122,VS06
abe9f56d-365d-4766-a1a1-cb5d2b2fc739,Conthey,1976,6023,VS,46.258117,7.3076119,VS06
f74aefd3-23bf-43c9-bb4c-b96d5358d9aa,Icogne,1977,6239,VS,46.325077,7.454108,VS05
47658229-6423-43d8-b066-4446a0177343,Lens,1978,6240,VS,46.294677,7.4579916,VS05
14b7ce28-1fbb-4d31-9374-0791437ac7d9,Vex,1981,6089,VS,46.196851,7.3910496,VS06
70f715cd-3ed3-487d-84f2-121b6bda8459,Hérémence,1982,6084,VS,46.16153,7.4142897,VS06
261bc8e5-aece-48bf-8a69-7baf84cc6f2c,Evolène,1983,6083,VS,46.049789,7.5093526,VS06
c1d04894-c1ee-429d-8b6a-b84f0819408b,Evolène,1984,6083,VS,46.083466,7.5195907,VS06
b740bbc7-a9fe-45c3-91c5-71fabc8af78c,Evolène,1985,6083,VS,46.098297,7.515359,VS06
37bad870-31ed-46fd-8533-5ac1bdca92c4,Evolène,1986,6083,VS,46.035958,7.4837096,VS06
7c894be6-8743-4073-8f34-81c7fde94393,Hérémence,1987,6084,VS,46.088772,7.3956333,VS06
054ae389-0627-48b4-be79-8b651e26cd45,Vex,1988,6089,VS,46.181429,7.371336,VS06
a7ada168-c2b7-46fe-a034-90045bc50e9d,Sion,1991,6266,VS,46.207624,7.3536756,VS06
d6732ba9-1625-465c-9b4d-50965da676fc,Sion,1992,6266,VS,46.199086,7.368009,VS06
7d3146d8-6fc8-4335-9079-b2791e30dcdb,Nendaz,1993,6024,VS,46.197221,7.3379753,VS06
bc627e7c-2230-46c6-9d2b-3d4307e05877,Veysonnaz,1993,6267,VS,46.197221,7.3379753,VS06
dfd9caf4-c7ea-4809-b751-540b3ee526d1,Nendaz,1994,6024,VS,46.198447,7.3180982,VS06
6dee2ee8-8712-4b97-a0b4-925c425e7343,Nendaz,1996,6024,VS,46.152039,7.28313,VS06
42e45424-bca7-4b48-b50e-2c65dbf18352,Nendaz,1997,6024,VS,46.136053,7.315865,VS06
99f72229-f59d-4da7-8edd-9ab3ae567236,Neuchâtel,2000,6458,NE,47.00942,6.938099,NE01
e753b2a6-b6b3-456d-b5a2-794c0cc84a23,Neuchâtel,2001,6458,NE,null,null,NE01
7461e1ec-c9bc-48f0-ace5-9aca222923ee,Neuchâtel,2002,6458,NE,null,null,NE01
580a2208-6873-499a-9b0e-3fc9ef6b4407,Neuchâtel,2010,6458,NE,null,null,NE01
aa4b2fe9-15c7-4438-abd5-d8b4e7068268,Milvignes,2012,6416,NE,46.9775,6.8786858,NE01
c0b9e569-bea1-480d-bc57-05504d435690,Milvignes,2013,6416,NE,46.96958,6.860917,NE01
419cdfd6-648f-4883-ab94-00aca7d1999a,Milvignes,2014,6416,NE,46.96887,6.8371304,NE01
ea6bab84-b3a5-4158-a5e9-d6be7e5c3745,Boudry,2015,6404,NE,46.957225,6.857165,NE01
bf09a295-4b5c-406e-9d95-1d16cb16f6ca,Cortaillod,2016,6408,NE,46.944009,6.847917,NE01
202cfd06-5a89-4754-a54b-89b4076f89d3,Boudry,2017,6404,NE,46.953114,6.8077468,NE01
e9ca2d04-de69-4fe7-af4d-fa268d33f75b,Rochefort,2019,6413,NE,46.986265,6.803973,NE01
2f88ac3d-7d4f-46c1-8e1a-19a66c1f915a,La Grande-Béroche,2022,6417,NE,46.931163,6.8041303,NE01
922652d6-7ebe-4e80-89ba-63045770245f,La Grande-Béroche,2023,6417,NE,46.924247,6.7650556,NE01
165c1077-506e-4d89-98be-d6ba3a18c1b2,La Grande-Béroche,2024,6417,NE,46.89986,6.755201,NE01
aadd191d-396c-4462-8ea8-757b7b600c2c,La Grande-Béroche,2025,6417,NE,46.900382,6.7828033,NE01
d9f47cb1-6f40-4336-ba87-dbc08fc2815b,La Grande-Béroche,2027,6417,NE,46.886716,6.747247,NE01
aa4858d5-f82f-4474-b194-612934aaf086,La Grande-Béroche,2028,6417,NE,46.873294,6.745425,NE01
31c18dff-29db-4a92-8bb3-18f4089e4e06,Peseux,2034,6412,NE,46.995552,6.8894893,NE01
55ccd295-d75f-4905-a0f4-61516b4eb370,Corcelles-Cormondrèche,2035,6407,NE,46.985117,6.875569,NE01
755379a7-f524-421f-80e8-93b4c37ee260,Corcelles-Cormondrèche,2036,6407,NE,46.98055,6.869562,NE01
92b8fcfd-96a0-4934-81d6-293d0d94fd1a,Rochefort,2037,6413,NE,47.000457,6.831644,NE01
78f93526-b2c6-46b5-aa20-e2fde963ceb0,Val-de-Ruz,2037,6487,NE,47.000457,6.831644,NE01
5f68d1ab-d0e9-4b4b-bee8-c6ba44d4dc71,Valangin,2042,6485,NE,46.953292,6.902546,NE01
4cad1ad6-fc43-45ab-9282-ffec7a6c1e22,Val-de-Ruz,2043,6487,NE,47.031,6.881124,NE01
e1c7051b-85b9-4c84-b12b-579ce3911d7c,Val-de-Ruz,2046,6487,NE,47.060726,6.874298,NE01
63cd566b-fdd8-4c22-a135-618ccdf78460,Val-de-Ruz,2052,6487,NE,47.059121,6.8837839,NE01
65a109c6-4b78-4e4c-9cd6-06966d7d9d99,Val-de-Ruz,2053,6487,NE,47.076185,6.90062,NE01
730c94e5-0f7c-40fb-8b59-7231cfa7bc97,Val-de-Ruz,2054,6487,NE,47.072854,6.925595,NE01
a828c842-455a-4cfd-9394-a09492b85279,Val-de-Ruz,2056,6487,NE,47.084497,6.9533862,NE01
814be575-6bd3-4c31-a202-40f1a8359698,Val-de-Ruz,2057,6487,NE,47.089123,6.993208,NE01
d7287012-3143-4aad-914c-aac291ca10fd,Val-de-Ruz,2058,6487,NE,47.106986,6.989688,NE01
e6e94990-a828-466a-8bd0-b4caa94794f1,Val-de-Ruz,2063,6487,NE,47.026029,6.930508,NE01
bf84f93f-acf3-4ee0-a4c1-300cf0347f12,Val-de-Ruz,2065,6487,NE,47.050346,6.956586,NE01
8c9a0b0d-174e-4b1f-aaa9-e403100be3eb,Neuchâtel,2067,6458,NE,47.012327,6.9497155,NE01
986a8062-9288-4584-b5e3-e951a87f0937,Hauterive (NE),2068,6454,NE,47.015268,6.922689,NE01
42b60477-22b0-4588-a1d8-5e323f89b77f,Saint-Blaise,2072,6459,NE,47.024492,6.988657,NE01
9fb1dcc0-73fc-4449-bc17-99389fedae0d,Enges,2073,6453,NE,47.064741,7.009513,NE01
ab0d4149-6672-46e0-9559-2db0df8c6ceb,La Tène,2074,6461,NE,47.00927,7.012101,NE01
3b668594-9a22-42fe-b778-ae6a0602c62b,La Tène,2074,6461,NE,null,null,NE01
0422a565-887b-45fd-a2f8-d3bae00fed09,La Tène,2075,6461,NE,47.019356,7.020211,NE01
9d171c4a-23cf-488d-aa30-427054114e40,Cornaux,2087,6451,NE,47.032614,7.013854,NE01
a83b2692-117c-4ed0-a4b7-e6aaa0a5ec78,Cressier,2088,6452,NE,47.050519,7.024022,NE01
9967908e-6a93-4af3-94ba-e2204c2df6bb,Val-de-Travers,2103,6512,NE,46.953189,6.724971,NE02
01e1c049-9212-442c-bd9f-51826222d474,Val-de-Travers,2105,6512,NE,46.948655,6.6778608,NE02
c6684c27-fe1e-48fc-80d1-866176cbbd51,Val-de-Travers,2108,6512,NE,46.934028,6.6305364,NE02
5b211d89-2e7e-4507-ba0d-6949333d1512,Val-de-Travers,2112,6512,NE,46.903988,6.562438,NE02
15b949ad-4f05-4de3-93fc-cf880ecb651a,Val-de-Travers,2113,6512,NE,46.928314,6.588505,NE02
494bf7b8-e850-4efc-bb4a-67971619fefb,Val-de-Travers,2114,6512,NE,46.895223,6.5898293,NE02
713cb598-d5e4-43bb-99a3-a7c28ce65131,Val-de-Travers,2115,6512,NE,46.883568,6.5350187,NE02
324bc100-93dd-4f89-aba6-48d7edb25f0a,Val-de-Travers,2116,6512,NE,46.877765,6.510081,NE02
87937f2b-5c9a-4232-a1a3-bf65a6238314,La Côte-aux-Fées,2117,6504,NE,46.863104,6.4875101,NE02
6c1d5228-0553-46df-92a9-cdf71f8f487a,Val-de-Travers,2123,6512,NE,46.920936,6.545915,NE02
c039bd72-795f-4cd6-bfae-12a122a73a1c,Val-de-Travers,2124,6512,NE,46.938641,6.593202,NE02
33622e05-fdf5-4eea-ae44-2ede237d4be1,Les Verrières,2126,6511,NE,46.91496,6.4749728,NE02
bd1c1b2e-9f95-4b18-a5fc-904626befe1d,Val-de-Travers,2127,6512,NE,47.540912,8.577898,NE02
78ff14da-6aa5-418d-ad76-dad32f99147b,Rochefort,2149,6413,NE,46.960221,6.757977,NE01
42da1a77-dd69-472a-81d6-12777867c2c0,Val-de-Ruz,2206,6487,NE,47.021641,6.847644,NE01
4b5cb725-4dbd-407f-9b9b-b9d1a3c6dd73,Val-de-Ruz,2207,6487,NE,47.009363,6.850036,NE01
7c70ecd7-0c50-46c7-add4-466d0a8782dc,Val-de-Ruz,2208,6487,NE,47.050709,6.863913,NE01
167aea8a-e30f-467f-bd15-5c1e660dfec4,La Chaux-de-Fonds,2300,6421,NE,47.110167,6.8333841,NE02
e9b1d201-9a6f-4650-aee7-11944960c7ff,La Chaux-de-Fonds,2301,6421,NE,null,null,NE02
79fc545c-eed6-46fc-ba26-32b164957893,La Chaux-de-Fonds,2303,6421,NE,null,null,NE02
a1f1aad6-7f2c-409a-afdf-d8e6407dc651,La Chaux-de-Fonds,2304,6421,NE,null,null,NE02
04e2989f-1ce4-4eaa-b8b2-d9e5c4722d03,La Sagne,2314,6423,NE,47.047069,6.801457,NE02
3ed6eb01-0e51-48e5-bcd9-e53d4564ff3f,Les Ponts-de-Martel,2316,6437,NE,46.997312,6.730192,NE02
605e4342-d1e9-4aec-b6a9-73cebd01b3b9,Brot-Plamboz,2318,6433,NE,46.984783,6.750701,NE02
4cbe6443-f194-4a2d-8a2a-28cd30e6c71c,La Chaux-de-Fonds,2322,6421,NE,47.077867,6.783163,NE02
1cc363b1-22a3-4fe1-b8cf-f145177a7bcc,Les Planchettes,2325,6422,NE,47.107605,6.768187,NE02
0817792e-910d-46e8-bd04-32ce07a6cf32,La Ferrière,2333,435,BE,47.143308,6.893077,BE09
400349d8-4436-4c92-a986-f77dbb3a5257,Les Bois,2336,6742,JU,47.1795,6.8982506,JU03
d08feb45-7b1d-451b-98b9-86cc201f23aa,Muriaux,2338,6753,JU,47.223004,6.986145,JU03
aab3535b-eef5-4eba-9136-ad04477730c3,Le Noirmont,2340,6754,JU,47.213662,6.9441246,JU03
9bd9c8bc-914f-4b3b-9d59-1dfc31d69c71,La Chaux-d.-Breuleux,2345,6744,JU,47.205182,7.0025562,JU03
989e7b7b-fd1a-4926-bf30-8b0817836f04,Les Breuleux,2345,6743,JU,47.205182,7.0025562,JU03
09d493e9-87a2-4015-918d-42cd1185c5ce,Muriaux,2345,6753,JU,47.205182,7.0025562,JU03
18b60943-e419-4a54-99d3-e9a4d8df50f3,Saignelégier,2350,6757,JU,47.245831,7.0199923,JU03
ff3e61bc-7ca1-4b4e-af3f-5c83c63f2c0a,Saignelégier,2353,6757,JU,47.273598,6.986217,JU03
a747f880-47b1-45ef-b606-df1f81e553ed,Saignelégier,2354,6757,JU,47.267305,6.959292,JU03
c2e9bec8-80c3-4ea9-90c4-dfc48b05f206,Le Bémont,2360,6741,JU,null,null,JU03
a6cbbeb9-c455-4b2f-a014-f8d2ea163da1,Montfaucon,2362,6751,JU,null,null,JU03
c304e5f6-6768-4f34-8c7e-0f8a3d919a12,Les Enfers,2363,6745,JU,null,null,JU03
6391d0f0-b571-44a9-9a13-c8d4bc9036b3,Saint-Brais,2364,6758,JU,null,null,JU03
19b6851f-4e2e-449e-a739-cc69834bbf08,Le Locle,2400,6436,NE,47.053178,6.7481551,NE02
fcb7cdc9-2754-4505-b7e7-244d6b2f944d,La Chaux-du-Milieu,2405,6435,NE,47.005931,6.694585,NE02
67a5c980-23dc-4c50-88dd-36458ab868ee,La Brévine,2406,6432,NE,46.968216,6.5827487,NE02
6b697e7c-20ec-42f8-824f-9e322d30e795,Le Cerneux-Péquignot,2414,6434,NE,47.013594,6.666785,NE02
5fbfeb1a-83bd-4667-99ef-7ab60d531831,Les Brenets,2416,6431,NE,47.074804,6.724767,NE02
88157b6e-1ee5-4750-a377-8c7d37d2fedd,Biel,2500,371,BE,47.14706,7.29099,BE08
8d411f3c-031a-470f-8fd5-26c907277ddf,Biel,2500,371,BE,null,null,BE08
08449490-b96e-4882-bb5e-8617fa9e47f4,Biel,2501,371,BE,null,null,BE08
db87c3d3-7b18-4949-a233-c2a686abd140,Biel,2502,371,BE,null,null,BE08
4f951ca2-b5f2-4330-aedc-3668b3c04059,Biel,2503,371,BE,null,null,BE08
c3b39775-a00a-4668-93c1-ae70c5391f81,Biel,2504,371,BE,null,null,BE08
8af761a9-e2ca-4711-b111-f02049ddcda2,Biel,2505,371,BE,null,null,BE08
2afad6b7-248e-42e0-b897-dc9f207300cf,Twann-Tüscherz,2512,756,BE,47.122351,7.197346,BE08
cf5ad980-ab24-451a-87d8-55306447e2be,Twann-Tüscherz,2513,756,BE,47.10312,7.1601915,BE08
6f9f4e67-fe07-4840-8a62-a20a4b421fa9,Ligerz,2514,740,BE,47.089107,7.144994,BE08
41b5604c-251c-44be-821a-248272b46069,Plateau de Diesse,2515,726,BE,47.150809,7.122924,BE09
52992162-508a-47f4-ab5c-1ddcadc10098,Plateau de Diesse,2516,726,BE,47.127162,7.1556517,BE09
f00cf524-a8ab-4a94-993a-242379703990,Plateau de Diesse,2517,726,BE,47.118193,7.117711,BE09
d86cb342-67de-493f-b275-ca5ee487f734,Nods,2518,724,BE,47.121357,7.083118,BE09
e7b3423c-b58e-491d-aa62-c1eb21371006,La Neuveville,2520,723,BE,47.075304,7.1016512,BE09
24af1412-e26c-4c07-b565-5fdd828fc288,Lignières,2523,6456,NE,47.091235,7.0506328,NE01
511a00e9-0fed-44fc-9061-21dac856eaa4,Le Landeron,2525,6455,NE,47.06439,7.0574879,NE01
86bc7624-90f4-484e-a7b5-82304f148a5d,Evilard,2532,372,BE,47.141664,7.218417,BE08
0d4261ee-c1fe-488e-a757-b58c1e22a0a8,Evilard,2533,372,BE,47.145582,7.2209867,BE08
e7afe76d-239e-42c8-bc87-f005e767d707,Orvin,2534,438,BE,47.156247,7.1931199,BE08
2eddeb71-f664-4319-908e-da662a22c3fc,Sauge,2535,449,BE,47.169215,7.257512,BE08
ac84f59e-c516-46a4-ac0f-6cc98ba0bdec,Sauge,2536,449,BE,47.188382,7.276413,BE08
a8070e1c-5df6-42ad-beed-4f82c06cb2b7,Sauge,2537,449,BE,47.185467,7.29684,BE08
6ea8240d-84a9-4426-afad-87f441500240,Romont,2538,442,BE,47.196888,7.30166,BE08
de0026c7-1a3d-4810-9d19-81f8fea3cfe7,Grenchen,2540,2546,SO,47.197181,7.3875297,SO02
3ddc22a8-522a-4717-9303-12603b76a98f,Grenchen,2540,2546,SO,null,null,SO02
0f4b6e6f-08b9-48b1-9650-4d6daaf8acf7,Pieterlen,2542,392,BE,47.17387,7.3280082,BE08
754f15f6-5697-477d-b91e-2a4a72514adf,Lengnau,2543,387,BE,47.181247,7.363152,BE08
134b8282-9f8a-4180-bd6a-ec14a95fc51c,Bettlach,2544,2543,SO,47.208551,7.4188411,SO02
b111b833-20ef-403b-89e6-eabc0bb9174c,Selzach,2545,2556,SO,47.217233,7.4483962,SO02
40721b2f-d84e-41f3-8412-74cc3b5ea382,Orpund,2552,744,BE,47.141804,7.3031186,BE08
dc71c4a8-6013-4765-813a-4f4cf1b1ba6b,Safnern,2553,746,BE,47.152304,7.3219211,BE08
111c6d34-11fc-48d9-9279-5ec99ec8e080,Meinisberg,2554,390,BE,47.161415,7.3526683,BE08
6c842547-db5c-4fb5-860e-b0a23fc40b88,Brügg,2555,733,BE,47.126608,7.277114,BE08
eaca846f-5e2c-4a9a-ab71-98f34d1e85ff,Scheuren,2556,747,BE,47.121929,7.314355,BE08
567b1a13-f1d7-4a7f-a61c-4c5f9b4d76b3,Schwadernau,2556,748,BE,47.121929,7.314355,BE08
9e62032a-00c4-4047-9c69-63375d9a35e0,Studen,2557,749,BE,47.109917,7.298819,BE08
395b884c-4b7f-46e3-9720-f5383590cc34,Aegerten,2558,731,BE,47.117144,7.2850887,BE08
1f1208f2-b9f3-407e-9481-702c75fb8150,Nidau,2560,743,BE,47.124345,7.240867,BE08
8c4f06ab-d5cc-4108-a100-4fe4f6d5e472,Port,2562,745,BE,47.114111,7.2589033,BE08
402d45b3-9474-4dcf-ba0a-c23673f6e031,Ipsach,2563,739,BE,47.115046,7.2318227,BE08
61b4c74f-806b-4c86-a854-409f26088fdb,Bellmund,2564,732,BE,47.102878,7.2431854,BE08
f80032a7-9452-4c7e-b22c-6dee51d1829f,Jens,2565,738,BE,47.096909,7.267667,BE08
042b77ae-c371-430d-9efb-bf2beb6d4fac,Mörigen,2572,742,BE,47.084052,7.212937,BE08
6a682333-c8ad-40ab-ba34-6c3f2b8c2ccf,Sutz-Lattrigen,2572,750,BE,47.084052,7.212937,BE08
10619ad3-15ec-4071-af20-98263089d557,Hagneck,2575,736,BE,47.065273,7.1978136,BE08
2ada3e47-f9ce-43f6-82cb-e0114c74af2c,Täuffelen,2575,751,BE,47.065273,7.1978136,BE08
966d0495-237d-433b-9f8c-7531e77545df,Lüscherz,2576,497,BE,47.043249,7.154039,BE08
5ad97c8b-7305-4051-9e07-3d0ba65def17,Finsterhennen,2577,493,BE,47.017191,7.178946,BE08
34d36494-74f4-45a8-ae5c-71cbd1fb5239,Siselen,2577,499,BE,47.017191,7.178946,BE08
fe851c0c-5645-4b36-8795-517732c75ee6,Péry-La Heutte,2603,450,BE,47.198696,7.2633059,BE08
de8bb439-53d3-4086-8846-3fd496b794df,Péry-La Heutte,2604,450,BE,47.188501,7.218523,BE08
1ad861ba-3933-4113-96c8-62c7f392a38a,Sonceboz-Sombeval,2605,444,BE,47.191538,7.1784705,BE09
3a95b37b-87a2-4d40-9c80-a2e3b4ccc422,Corgémont,2606,431,BE,47.191072,7.1385835,BE09
c4b3ba63-f818-4282-81c1-48bb51c2f673,Cortébert,2607,433,BE,47.174833,7.107801,BE09
85c3d984-6340-46c9-9dd1-7ae8be41fcc4,Courtelary,2608,434,BE,47.176454,7.0726537,BE09
07c8276e-2525-46c1-8304-c37adc28e6c1,Cormoret,2610,432,BE,47.151094,6.988854,BE09
7f902d76-1529-4ee8-a725-930f4babae4e,Saint-Imier,2610,443,BE,47.151094,6.988854,BE09
4d7704ac-81b9-49fb-b16a-b243c4fa796a,Cormoret,2612,432,BE,47.164468,7.046914,BE09
14ac6f57-8c9c-4b0c-9b88-63ccf457dec6,Villeret,2613,448,BE,47.16237,7.022792,BE09
561e487f-b519-43c3-bed8-fec53e67d0f7,Sonvilier,2615,445,BE,47.138715,6.952242,BE09
30eace6c-4aa8-424e-a385-3b0acaed5188,Renan,2616,441,BE,47.11319,6.869005,BE09
e58bc4b4-006e-4302-8011-3920343e1737,Tavannes,2710,713,BE,47.221367,7.183779,BE09
b69f3973-a01e-4f38-8fb2-e76412529ee0,Saicourt,2712,706,BE,47.243388,7.18281,BE09
35bb0b35-a0e0-42be-a88a-c8d74c00ebe4,Saicourt,2713,706,BE,47.268483,7.1667346,BE09
8b3271cd-51b2-40a9-9567-4f2cb5d4d708,Les Genevez,2714,6748,JU,47.257435,7.131295,JU03
fb773e30-149e-4271-8750-47e0c6834667,Petit-Val,2715,716,BE,47.270148,7.185734,BE09
a4f0afac-32e3-48fb-b7c9-672413ea9e83,Petit-Val,2716,716,BE,47.27114,7.217187,BE09
1fe26b44-64f5-43fd-ab2e-3b4784f91c5d,Petit-Val,2717,716,BE,47.284904,7.182592,BE09
d23eb1ba-8876-42a6-96d0-38397e353242,Rebévelier,2717,715,BE,47.284904,7.182592,BE09
5e6ff0db-0283-48dd-a74d-864b32a00fd3,Lajoux,2718,6750,JU,47.278861,7.104636,JU03
9f5aa0a2-33df-4145-b58a-182d9ee8d5c7,Tavannes,2720,713,BE,47.227241,7.0968017,BE09
f71cba6e-7701-4ea8-90d6-27c5d5b81a97,Tramelan,2720,446,BE,47.227241,7.0968017,BE09
562e46db-b575-4e7f-86df-a6876f86f2a1,Tramelan,2722,446,BE,47.22462,7.083355,BE09
1005e9dd-fa04-4b9d-a036-de12a6d9723b,Mont-Tramelan,2723,437,BE,47.202772,7.064316,BE09
912acdd1-cb8f-4b52-a2be-69c2a513cbd2,Loveresse,2732,696,BE,47.226664,7.2229829,BE09
f36fb7e2-4a31-4883-9b53-8397e6e2c6d6,Reconvilier,2732,703,BE,47.226664,7.2229829,BE09
ac56bb68-131c-4046-b822-97e5f4241772,Saicourt,2732,706,BE,47.226664,7.2229829,BE09
44739b5d-a63c-4b08-9ac9-dace4953dee9,Saules,2732,707,BE,47.226664,7.2229829,BE09
71d86030-4c50-46fb-af17-6f0a1654ad0c,Valbirse,2733,717,BE,47.249666,7.253908,BE09
78ac36da-0a01-49fa-a38f-eb420f19fdb8,Champoz,2735,683,BE,47.232017,7.285008,BE09
5b49dad6-188a-4b6c-ab80-9a1af2740019,Valbirse,2735,717,BE,47.232017,7.285008,BE09
71122a9d-3110-4a0b-9425-e54cabdede68,Valbirse,2735,717,BE,null,null,BE09
f52e967e-1141-4be9-b27f-901865a91ca3,Sorvilier,2736,711,BE,47.233042,7.306863,BE09
d85db1b4-794b-4acc-ae4e-71b7a808316d,Court,2738,690,BE,47.239755,7.3592407,BE09
d392b4c3-89d5-44cc-bb9a-94e96b2a4fed,Moutier,2740,700,BE,47.277381,7.3616713,BE09
818d63f0-5adb-4979-870b-b8dd98506ee4,Perrefitte,2742,701,BE,47.278215,7.321825,BE09
d198449d-c742-400d-80ea-18c8becc99b9,Eschert,2743,692,BE,47.263485,7.40423,BE09
fd13ca08-d36f-403c-acdd-18ad33b66eef,Belprahon,2744,681,BE,47.288594,7.404268,BE09
808cd56d-74ac-4f45-b099-913f4630a6a7,Grandval,2745,694,BE,47.283523,7.425376,BE09
554b7620-aea6-40de-accf-ff5e440024b2,Crémines,2746,691,BE,47.285357,7.4519939,BE09
c07c75bd-0edf-4670-923f-26009b2b8f4c,Corcelles BE,2747,687,BE,47.301549,7.517976,BE09
0f1dcc7b-5971-40e2-bc04-983dfbec54bb,Seehof,2747,709,BE,47.301549,7.517976,BE09
6a237e48-5e21-48a5-a024-cc229ee58fc3,Petit-Val,2748,716,BE,47.273817,7.255861,BE09
5ee857e9-6569-4d47-9162-26ac0fd6fdbf,Roches,2762,704,BE,47.301706,7.37378,BE09
32cae895-2723-4de6-bdd6-594e59395f91,Delémont,2800,6711,JU,47.375101,7.3329244,JU01
eac0f3a0-7f19-4dd7-847e-786049e79e8f,Delémont,2800,6711,JU,null,null,JU01
7170b479-4892-4024-aa8e-d6596707d555,Develier,2802,6712,JU,47.364717,7.2815012,JU01
c9758fba-7997-4899-9b4a-607393b4aa09,Bourrignon,2803,6703,JU,47.392968,7.250756,JU01
ec1f99ab-935f-4724-9707-d95c13ea9e33,Soyhières,2805,6724,JU,47.398709,7.365186,JU01
ee560ae8-c1ec-4f98-a8c3-725c19885af8,Mettembert,2806,6716,JU,47.396686,7.324817,JU01
314b951e-42a9-430a-ad83-2365ece4143b,Pleigne,2807,6719,JU,47.415442,7.30973,JU01
be69e54b-9c0d-478b-8867-d6a7df37474c,Movelier,2812,6718,JU,47.41042,7.317292,JU01
707f5d74-dc71-40df-98fc-a2caaa534fb0,Ederswiler,2813,6713,JU,47.421108,7.333272,JU01
6080d353-83f4-44c2-8b8f-0a3323cf4b95,Roggenburg,2814,2790,BL,47.428278,7.354321,BL05
589c9947-b300-4d26-a29b-dcafb57a5ffb,Courroux,2822,6709,JU,47.369195,7.3930276,JU01
916caa60-d98c-4413-84b2-34646eeceb08,Courroux,2823,6709,JU,47.36166,7.390955,JU01
72c7856e-cc69-4ee3-9c32-3ecdc0279c7a,Val Terbi,2824,6730,JU,47.350909,7.427028,JU01
cc2fa8b8-1769-4e07-94c6-38cc04ae2981,Courchapoix,2825,6706,JU,47.348062,7.451775,JU01
8c20deb1-63a5-4a5e-bfaa-5322ed213d39,Val Terbi,2826,6730,JU,47.347203,7.472348,JU01
b21d45a3-3712-4b8a-916e-70f20d0fd01e,Mervelier,2827,6715,JU,47.331277,7.55302,JU01
a79fc796-8ce8-4bd4-b6f0-35cc7f5f7e24,Schelten,2827,708,BE,47.331277,7.55302,BE09
6100c713-11ed-4716-aa2f-3cefabc82f4a,Val Terbi,2828,6730,JU,47.356951,7.511823,JU01
2cfaf0a4-a26c-4bf4-84a4-295a9793c668,Val Terbi,2829,6730,JU,47.322108,7.476983,JU01
dc9a8cdc-6300-493a-842f-e5f0e1797ba9,Courrendlin,2830,6708,JU,47.334666,7.3742803,JU01
d4701d64-ea2b-402b-94f3-a3a8b236ae06,Vellerat,2830,6728,JU,47.334666,7.3742803,JU01
9e7f8c6b-c220-4cc6-b202-5ac5304bf1c1,Rebeuvelier,2832,6720,JU,47.320793,7.417931,JU01
3e9d9ff6-40d6-4b3e-8754-8ee872da26e2,Rossemaison,2842,6721,JU,47.342631,7.343595,JU01
7983e169-5b01-4aeb-a345-687b6ef2f2c6,Châtillon,2843,6704,JU,47.319933,7.340727,JU01
85c47ab8-221e-4cf4-a8fd-6d1c81a5139f,Courtételle,2852,6710,JU,47.330942,7.3176619,JU01
15e35133-6f9b-4715-b69c-8531197d9d91,Haute-Sorne,2853,6729,JU,47.329924,7.2797488,JU01
cce4dd72-86f7-4696-b1bc-960172bd5fec,Haute-Sorne,2854,6729,JU,47.335135,7.2407825,JU01
b18d3aaf-a49f-474f-897d-fecc0d361cf1,Haute-Sorne,2855,6729,JU,47.326929,7.1844447,JU01
e9a55a90-5fcd-434c-aa33-009a8fc7479e,Boécourt,2856,6702,JU,47.361528,7.2229355,JU01
bce68e7e-8cb1-4f22-9909-546cbb1a100f,Boécourt,2857,6702,JU,47.37232,7.236435,JU01
8c55b559-0c1a-4210-918d-705c2f874d79,Haute-Sorne,2863,6729,JU,47.300865,7.222253,JU01
7a70538e-ee9a-43db-bae3-7641b154f9f4,Haute-Sorne,2864,6729,JU,47.297873,7.279942,JU01
d4747728-20a4-4398-85f7-6a16fc0e4369,Saulcy,2873,6722,JU,47.302493,7.153539,JU01
55c19572-7730-4b2b-9e91-5046aadd2c65,Clos du Doubs,2882,6808,JU,47.357747,7.15331,JU02
c7c8769b-0c04-4d3d-9c61-39d93c559426,Clos du Doubs,2883,6808,JU,47.358099,7.171072,JU02
6dd45fe6-60ae-4ed1-bdee-2af7ada94a8b,Clos du Doubs,2884,6808,JU,47.349739,7.143755,JU02
b711bf90-7e7d-4175-bd3b-7870787e495d,Clos du Doubs,2885,6808,JU,47.337305,7.116267,JU02
d334d8f4-34b8-48e7-b1ab-0b71f7e6374d,Clos du Doubs,2886,6808,JU,47.326102,7.068824,JU02
bf84c83e-70a7-491b-8e7f-e6a15bbc2384,Soubey,2887,6759,JU,47.306854,7.045637,JU03
e452cf35-1606-4508-b27d-122abcca0c36,Clos du Doubs,2888,6808,JU,47.362946,7.109186,JU02
952d62d5-52e3-448e-8331-e546d112a858,Clos du Doubs,2889,6808,JU,47.354908,7.073021,JU02
36cc18de-8295-4cc3-92dd-695f10f3312c,Porrentruy,2900,6800,JU,47.421299,7.0710139,JU02
c4a8720c-9a79-4a5e-ab79-fb6fe9be90f9,Porrentruy,2900,6800,JU,null,null,JU02
e4c731d7-4183-4480-a280-5cc89da8c14a,Fontenais,2902,6790,JU,47.387732,7.0768176,JU02
a5344fe8-c0d3-464c-bc67-230049443b04,Fontenais,2903,6790,JU,47.385514,7.080999,JU02
a5d03a79-405d-4ef8-b530-a59dcd4f4386,Fontenais,2904,6790,JU,47.383185,7.039055,JU02
23ad95e8-1be6-4d9d-b5e8-076ee52fb609,Courtedoux,2905,6785,JU,47.412724,7.036178,JU02
4572bf3a-29b2-4b98-98ee-4f8d2c3fb5f2,Haute-Ajoie,2906,6809,JU,47.391523,6.9928978,JU02
344a75b1-2b01-42c5-9621-17e457ce6631,Haute-Ajoie,2907,6809,JU,47.385756,6.955768,JU02
67b4d674-5f9e-4a0d-a820-eef9f459acf0,Grandfontaine,2908,6792,JU,47.39147,6.933637,JU02
64faed55-27fc-4910-b0d0-a63cf8102966,Haute-Ajoie,2912,6809,JU,47.365451,6.954115,JU02
b482236e-fb90-406d-8aaf-2a2811702de7,Haute-Ajoie,2914,6809,JU,47.36807,6.897797,JU02
f7262a58-25ea-4c59-b122-089d7a2dd41c,Bure,2915,6778,JU,47.303675,9.457086,JU02
415b7fd8-7971-4fca-8bbf-fe580283cd8a,Fahy,2916,6789,JU,47.417426,6.952857,JU02
01cc6ac1-7ce9-46ed-94b9-dc4ed7e3248f,Courchavon,2922,6783,JU,47.436636,7.04556,JU02
d79e4e97-ed3e-4c31-8556-b9d350599cb3,Basse-Allaine,2923,6807,JU,47.458188,7.046949,JU02
3d7a0da2-c7e0-4349-b407-77bbfd90aa00,Basse-Allaine,2924,6807,JU,47.48384,7.057063,JU02
d15a4a7f-06bf-4b35-8691-1cb2b8a15fff,Basse-Allaine,2925,6807,JU,47.477201,7.028201,JU02
e0c39f89-e86c-418e-bb1a-76bafcc24bb2,Boncourt,2926,6774,JU,47.487979,7.0076133,JU02
d8337307-1580-46ef-9f33-d1317142d44c,Coeuve,2932,6781,JU,47.453325,7.095441,JU02
56e86677-d215-4019-bf02-54def0d704cc,Damphreux,2933,6787,JU,47.26598,7.091707,JU02
a7f14e2a-382e-4178-a33e-660fc20f7a04,Lugnez,2933,6793,JU,47.26598,7.091707,JU02
044ed35c-08a8-4fa7-9d63-9f76a13bbc38,Beurnevésin,2935,6773,JU,47.489202,7.129588,JU02
9bae3cd8-4f47-4f38-9830-e260e7760274,Alle,2942,6771,JU,47.428414,7.1262486,JU02
565d6f7a-ad83-498a-91af-06780fc3441d,Vendlincourt,2943,6806,JU,47.451931,7.14873,JU02
d6db83e7-4865-4035-8409-e548712333c9,Bonfol,2944,6775,JU,47.475846,7.1568061,JU02
f8fc7726-f7d8-48f2-81a1-93a213221cbe,La Baroche,2946,6810,JU,47.431234,7.174225,JU02
b1d8d70a-7706-442f-9fc3-8bc406918796,La Baroche,2947,6810,JU,47.426859,7.212295,JU02
5d608be1-5f89-4592-bada-0a695645ba2e,Courgenay,2950,6784,JU,47.392946,7.1218698,JU02
bbb0622c-9309-4297-b794-02276952ec6c,Cornol,2952,6782,JU,47.404754,7.1631351,JU02
9b648a8f-887b-4478-b0c9-eb40922fba59,La Baroche,2953,6810,JU,47.40891,7.192515,JU02
706bdabd-03a5-44ae-a9a3-86414eb1010b,La Baroche,2954,6810,JU,47.390934,7.205187,JU02
385280fa-6169-46ae-8b9c-cf0bd004f7a3,Bern,3000,351,BE,46.947613,7.4064559,BE01
300bedff-6dad-4ce2-9743-d3104061472a,Bern,3000,351,BE,null,null,BE01
31d6bcc0-c3fd-4924-aef6-3120b3dcebaa,Bern,3001,351,BE,null,null,BE01
b4645954-77c3-4f25-abaa-033443feb755,Bern,3002,351,BE,null,null,BE01
24041ed5-9cc9-4dda-94ce-ee0560e81856,Bern,3003,351,BE,null,null,BE01
682529e3-137b-47e5-a4ff-50811ae0dae7,Bern,3004,351,BE,46.947613,7.4064559,BE01
02befd85-61bf-4afc-aaa4-ecf74c391009,Bern,3005,351,BE,46.93998,7.44864,BE01
f29116b3-b3cf-4e6b-b765-6acf2376ea20,Bern,3006,351,BE,46.945221,7.46987,BE01
1de3c9c8-89aa-4a7a-afaf-2c4da9657df1,Bern,3007,351,BE,46.93861,7.43985,BE01
413b94de-fd92-42fd-92b2-a43728db5e15,Bern,3008,351,BE,46.94363,7.41822,BE01
f80fb4c9-d036-4573-b1fe-1a49b20c2d19,Bern,3010,351,BE,46.947613,7.4064559,BE01
15b5d23f-9b69-45e9-bfa5-0ad987323200,Bern,3011,351,BE,46.947613,7.4064559,BE01
5a9115b4-2cdc-4223-b37d-ba60cad52c11,Bern,3012,351,BE,46.948232,7.44001,BE01
7f95a843-c912-4e17-a1c2-320debcd6a83,Bern,3013,351,BE,46.948232,7.44001,BE01
ae32ee33-477f-4abb-bf1b-ca672d347251,Bern,3014,351,BE,46.947613,7.4064559,BE01
1fc99736-d592-42b0-a275-5771c1b7a18b,Bern,3015,351,BE,46.948232,7.44001,BE01
4c9145dc-f2cd-4545-9f63-cb4c52c92add,Bern,3018,351,BE,46.947613,7.4064559,BE01
287e4a0a-5b7b-4603-b600-5cb6c321b7f2,Bern,3019,351,BE,46.931272,7.337686,BE01
f3720d7f-ccae-4f3a-a07d-bcdd58c97667,Bern,3020,351,BE,46.943758,7.349005,BE01
1eed9887-a855-46d4-a17a-09f06bd1031d,Bern,3024,351,BE,null,null,BE01
0ff2fd6a-5feb-4b1d-8c97-439efff6936e,Bern,3027,351,BE,46.947613,7.4064559,BE01
6977c454-ccf3-44a3-8976-6fe95f58adb8,Bern,3029,351,BE,null,null,BE01
a9b5c054-64aa-474a-a81e-52e453520026,Bern,3030,351,BE,null,null,BE01
8a56b0f5-8ea8-4321-abf2-ad61c1bd6865,Wohlen bei Bern,3032,360,BE,46.966266,7.3889073,BE01
ab042d93-f954-4aaa-9514-cf2a1b1cfa37,Wohlen bei Bern,3033,360,BE,46.982617,7.341256,BE01
fcf1c31e-ee75-47a9-84df-112e3ea15048,Wohlen bei Bern,3034,360,BE,46.98164,7.316445,BE01
59de314d-db15-404e-b2a2-06aa1f54e5c9,Seedorf,3035,312,BE,46.978476,7.2654627,BE08
c5d7a3bf-b55d-48d2-be7d-04d4f618774b,Radelfingen,3036,309,BE,47.001705,7.27331,BE08
97ab0627-37bb-4d7f-9b75-7fac000fb7c2,Kirchlindach,3037,354,BE,46.97803,7.41809,BE01
fd585712-0d03-4f65-ba12-9db701cd417b,Kirchlindach,3038,354,BE,46.998465,7.4157866,BE01
df50fa62-713e-4628-9c05-5f70dc709667,Bern,3039,351,BE,null,null,BE01
d872c55b-74a2-4857-98a2-2350070bffea,Bern,3040,351,BE,null,null,BE01
92411d54-7c48-4b44-8ef7-d12fc7d1699e,Bern,3041,351,BE,null,null,BE01
a1366ad0-272b-47a7-9dc4-680b04bf65aa,Meikirch,3042,307,BE,46.991721,7.402445,BE01
821ef5cd-8112-42ca-82ff-63d6d7fe25d9,Wohlen bei Bern,3043,360,BE,46.980313,7.3809721,BE01
33dca13a-1ca1-4728-bde5-a9d5bf4b44b0,Wohlen bei Bern,3044,360,BE,46.979016,7.3331005,BE01
18a027f5-ff1c-4d93-9397-0c5076d4ad0a,Meikirch,3045,307,BE,47.00397,7.365878,BE01
254e6bd8-0ea2-41ad-a388-eaf935a490a9,Meikirch,3046,307,BE,47.004169,7.336935,BE01
6b6cb86e-6090-4b46-bc76-4ad461292cad,Bremgarten b. Bern,3047,353,BE,46.974376,7.434629,BE01
0bec1032-63b8-4a11-966d-c249e67c1076,Ittigen,3048,362,BE,46.948693,7.4742101,BE01
0d8c2a03-05bd-4972-897c-04cf173420c8,Wohlen bei Bern,3049,360,BE,46.991755,7.3342661,BE01
27da1a5d-00c6-4ae4-8340-a026e3ab7abf,Bern,3050,351,BE,null,null,BE01
fd243391-ba5e-4172-8878-c4703169ca5a,Zollikofen,3052,361,BE,46.99423,7.452428,BE01
961418e1-46f3-45fa-a3b2-81404d912691,Deisswil b. Münchenb.,3053,535,BE,47.018148,7.4485937,BE01
c3728568-b250-4bc4-9b27-cddace654c88,Diemerswil,3053,536,BE,47.018148,7.4485937,BE01
8ea08ce8-8b71-4196-ac2f-51e71e80b598,Münchenbuchsee,3053,546,BE,47.018148,7.4485937,BE01
94cf8ede-3c23-4e02-94b2-55a9428362ef,Rapperswil,3053,310,BE,47.018148,7.4485937,BE08
cd556197-dc07-43e3-97c2-72826198539b,Wiggiswil,3053,553,BE,47.018148,7.4485937,BE01
5b2d599e-60d9-4194-ac07-de043cc82e94,Schüpfen,3054,311,BE,47.03577,7.374669,BE08
5eed4819-9211-4e9f-a0e9-65dfa67955a6,Ittigen,3063,362,BE,46.980634,7.4745184,BE01
3df1f5a7-d09f-45f6-b2ac-a60d9a214061,Bolligen,3065,352,BE,46.98316,7.5136364,BE01
b24bb43d-e53b-4e6d-b3da-61ccae4a5bdf,Stettlen,3066,358,BE,46.956637,7.5221256,BE01
83fae5c9-bdcc-4bb7-a78a-60f6903611fe,Vechigen,3067,359,BE,46.945895,7.552049,BE01
4ff24e21-a1e3-4885-9bed-ad45fd519c16,Vechigen,3068,359,BE,46.952372,7.576668,BE01
7474ffef-66a3-4799-9626-0e56500a9c2f,Ostermundigen,3071,363,BE,null,null,BE01
53dab198-20b3-4b1c-9d36-93ed995ef2c1,Ostermundigen,3072,363,BE,46.955897,7.4955872,BE01
0f3992cd-a8ab-40c6-836b-62c0132caa42,Ostermundigen,3072,363,BE,null,null,BE01
035b6c43-cc02-4eae-80c9-1db2afb4114b,Muri bei Bern,3073,356,BE,47.13098,7.531282,BE01
3dbd43fe-5bad-4654-afff-0e1b1641c9e5,Muri bei Bern,3074,356,BE,46.931454,7.49884,BE01
aa32855c-8d45-4b83-b497-03f6d269b338,Worb,3075,627,BE,46.927406,7.544254,BE01
c5b4511f-e858-4fbb-8038-ce29ece989b6,Worb,3076,627,BE,46.92724,7.570767,BE01
899ed46d-dd3e-4c94-8cff-1cb41929cfb4,Worb,3077,627,BE,46.932019,7.59649,BE01
e60a6430-c18c-498a-a3e5-d357088dae84,Worb,3078,627,BE,46.882212,7.5833616,BE01
e10879bd-2357-4c32-bc67-463190637000,Grosshöchstetten,3082,608,BE,46.906611,7.612471,BE01
c5931087-a1eb-47a9-8b88-8ecc6325204f,Münsingen,3083,616,BE,46.902626,7.5748,BE01
3c612833-d5e4-45bf-bad1-58b0ca735950,Köniz,3084,355,BE,46.940719,7.4587773,BE01
2d4ae288-8304-4a3a-8208-c87f40c0ee07,Köniz,3085,355,BE,null,null,BE01
3626fae7-74aa-4acc-9585-30187f09a862,Wald (BE),3086,888,BE,46.85176,7.4593289,BE01
c769c518-aa29-4e64-b138-1fd8623ca540,Niedermuhlern,3087,877,BE,46.857627,7.460841,BE01
e9ac1317-6cb9-4526-803c-f7a09a063590,Rüeggisberg,3088,880,BE,46.817546,7.432574,BE01
11baa64c-4340-4486-86a2-93c3766e19f9,Rüeggisberg,3089,880,BE,46.837569,7.401964,BE01
a169aef0-0589-4674-86f6-ff13549b74f4,Köniz,3095,355,BE,46.9209,7.42556,BE01
51d0f6af-ec9f-43be-aa9e-a96b431d094b,Oberbalm,3096,357,BE,46.865983,7.409022,BE01
6b90c3a8-237d-4fb6-a5a1-0f80f14bca91,Köniz,3097,355,BE,46.944076,7.4012414,BE01
4a884af7-4ea3-42f4-9915-22c03acfceeb,Köniz,3098,355,BE,46.904317,7.3978064,BE01
abb53e39-0243-40e2-859d-a3c8c7c4bb77,Riggisberg,3099,879,BE,46.770671,7.456789,BE01
43300f20-e9f7-4673-bc40-ace3a50a9a6c,Münsingen,3110,616,BE,46.876076,7.5608948,BE01
0ce7d0e4-2512-4f8b-b0c0-91941356e7cd,Münsingen,3111,616,BE,46.87056,7.584784,BE01
f2aa555f-9727-4602-84b4-29ab23085d56,Allmendingen,3112,630,BE,46.913624,7.521202,BE01
ca789701-f273-4c7b-ad2a-bc2fdf6f77f8,Rubigen,3113,623,BE,46.899696,7.5449246,BE01
ed543106-e3e6-4ef4-b9d7-905482eec85d,Wichtrach,3114,632,BE,46.8453,7.5794414,BE01
48fcde11-2bd2-491c-ab88-023b86440187,Gerzensee,3115,866,BE,46.846389,7.546094,BE01
c3715cdd-e6e8-4a25-b90d-d1d956b71191,Kirchdorf,3116,872,BE,46.800029,7.543826,BE01
85d6cc7b-6d22-43f2-ab9a-bbde2a5d1306,Kehrsatz,3122,870,BE,46.912118,7.4715586,BE01
38129444-c6e4-46ef-b20d-b10d193fe4f3,Belp,3123,861,BE,46.892709,7.5067525,BE01
75bc4d92-0982-4e61-b7f7-21ddbc05f5de,Belp,3124,861,BE,46.865719,7.520565,BE01
cc39dc79-3d1a-4c6a-a4c9-4d25121bedf4,Toffen,3125,884,BE,46.85884,7.4923896,BE01
1d469d21-c564-447f-8c23-1ca18f9ce505,Kaufdorf,3126,869,BE,46.839328,7.495906,BE01
bf5137c2-d8d9-4ae5-bb1e-3e4648191dea,Kirchdorf,3126,872,BE,46.839328,7.495906,BE01
ecffc2d4-a657-47ab-a67c-076c204a13e4,Lohnstorf,3127,874,BE,46.816003,7.5102979,BE01
1b604b3a-d531-45fd-bc69-06d2edc70485,Mühlethurnen,3127,876,BE,46.816003,7.5102979,BE01
d5ff4ecf-5187-47fc-943d-952e70d97b0f,Kirchenthurnen,3128,873,BE,46.822893,7.505082,BE01
70fa1ab4-261c-4a34-8b5d-60ebdcb398df,Rümligen,3128,881,BE,46.822893,7.505082,BE01
4d07796c-ea3a-42e5-832b-71a2fcbed2c4,Riggisberg,3132,879,BE,46.80834,7.4694378,BE01
e2973ca8-6387-4167-a3e2-aeef669b2681,Köniz,3144,355,BE,46.89995,7.401854,BE01
b00c7e39-0998-4a46-9fc7-0615163c63b5,Köniz,3145,355,BE,46.882799,7.3797595,BE01
441c7e2a-90ba-4418-b0f7-19166e07d397,Köniz,3147,355,BE,46.876539,7.368507,BE01
5b4c2b35-b474-4713-a0c6-02cf19372fd1,Schwarzenburg,3148,855,BE,46.843541,7.347991,BE01
7a98b09f-cbdb-4e1b-96d2-a8199508a9e9,Schwarzenburg,3150,855,BE,46.845868,7.3427884,BE01
73703d72-574e-40a6-a197-fde98d8f6725,Schwarzenburg,3152,855,BE,46.80972,7.378855,BE01
ff1a4448-293e-4f4b-86f2-187e28c628c2,Rüschegg,3153,853,BE,46.779807,7.392719,BE01
dd67770a-c90d-4379-ade5-252ff2bdbb81,Rüschegg,3154,853,BE,46.78186,7.406947,BE01
fbf96309-b531-4fa2-9024-955dc77d48c7,Rüeggisberg,3155,880,BE,46.814636,7.430354,BE01
7f53dc44-f213-4efe-8180-2c350db24381,Guggisberg,3156,852,BE,46.767926,7.3471758,BE01
81ecfc66-1ba7-4d6b-b33b-3795d947853d,Schwarzenburg,3157,855,BE,46.793094,7.359111,BE01
638ba8df-c853-404a-93d8-ca7c4f808aaf,Guggisberg,3158,852,BE,46.744697,7.34371,BE01
e8444d64-9c44-42e9-8c5d-288b53e543df,Guggisberg,3159,852,BE,46.783138,7.3138648,BE01
2ba88d58-4614-43f7-8d26-80bc95240ba9,Köniz,3172,355,BE,46.915275,7.380358,BE01
a8a0cff5-ba93-459f-8e2e-eaf443d8cb57,Köniz,3173,355,BE,46.90428,7.367527,BE01
82dbfe6d-6ffd-4d5b-ba49-9ab66f803429,Köniz,3174,355,BE,46.901395,7.3494178,BE01
89a6f1aa-bdae-4f28-a764-d788748f104e,Wünnewil-Flamatt,3175,2309,FR,46.879339,7.3196251,FR06
18c0751f-c94a-4a3d-9b22-2551c592f0f7,Neuenegg,3176,670,BE,46.907116,7.2980779,BE01
8689fc13-8423-4a07-aff8-89aefad07a94,Laupen,3177,667,BE,46.909876,7.242442,BE01
b26a6b90-bad4-4bc3-8dd0-b4ca734852e1,Bösingen,3178,2295,FR,46.884013,7.2358061,FR06
dae83282-d6d1-409f-b3ef-e58bb232cb34,Kriechenwil,3179,666,BE,46.910791,7.222791,BE01
1d0cbd8a-7fba-4b7a-8c01-fa21479ee8af,Ueberstorf,3182,2308,FR,46.869466,7.3264022,FR06
45a2b883-3907-40b0-ad43-61dda6ddba63,Schwarzenburg,3183,855,BE,46.851398,7.318044,BE01
6b63c0c9-2923-4a51-a736-b3f74b6b7b9a,Wünnewil-Flamatt,3184,2309,FR,46.886637,7.2805988,FR06
f974029d-03a8-4bfb-8496-0c9e4d39d2b3,Schmitten,3185,2305,FR,46.846782,7.242022,FR06
5d052b07-706e-4c96-a52e-6466a0047fd9,Düdingen,3186,2293,FR,46.844741,7.1910118,FR06
e2a77d8f-0647-412c-a54f-e17323920b0a,Frauenkappelen,3202,663,BE,46.955351,7.3334089,BE01
baa7bd79-87f2-4fb6-80ef-c46094a1e784,Mühleberg,3203,668,BE,46.946615,7.2719409,BE01
c1ebb24e-e4f0-41de-ad48-9d58ee9a87da,Mühleberg,3204,668,BE,46.904065,7.263085,BE01
bcbd6971-e4cf-4f74-a668-605abd6b3c03,Mühleberg,3205,668,BE,46.931805,7.2276552,BE01
5a4b2adf-9486-4f6c-b963-6b1ab3417f47,Ferenbalm,3206,662,BE,46.904464,7.2109726,BE01
9911d724-9745-421b-84b8-889d866c18e7,Gurmels,3206,2262,FR,46.904464,7.2109726,FR05
eece4be9-0dbf-4fc5-9302-66c7dafc46e7,Golaten,3207,664,BE,46.971434,7.238004,BE01
7c36c06f-ae06-46c8-a14b-1bd7b6155128,Wileroltigen,3207,671,BE,46.971434,7.238004,BE01
4c7d5318-137b-4712-8b01-e7c9a50d3186,Gurbrü,3208,665,BE,46.957645,7.206759,BE01
63393571-7c38-4714-946c-f03a19983972,Kerzers,3210,2265,FR,46.981234,7.1987553,FR05
8fc14d8e-e343-486d-898d-3b1c0425e6c6,Gurmels,3212,2262,FR,46.894082,7.1719149,FR05
c56d1bb9-957c-442d-a98f-b8d830efb366,Gurmels,3213,2262,FR,46.892839,7.200979,FR05
168a4a31-b562-4cba-bf79-7dab471687e3,Kleinbösingen,3213,2266,FR,46.892839,7.200979,FR05
462cc9b4-b39a-40bd-b37f-f54bd31a73df,Ulmiz,3214,2278,FR,46.928699,7.1981,FR05
03bd8604-4a43-4f28-95ba-60e9e0d52d56,Gempenach,3215,2260,FR,46.926529,7.16936,FR05
3bcc99db-119f-4098-84e1-a70e9c52d65e,Murten,3215,2275,FR,46.926529,7.16936,FR05
2ff0abb0-c9e0-4e63-a3cc-a7674149645e,Ried bei Kerzers,3216,2276,FR,46.963442,7.178614,FR05
5a38a003-f6f7-471f-8159-b3758c7928de,Müntschemier,3225,498,BE,46.994929,7.146369,BE08
5b1eee08-1c4e-4c8f-98ef-3a2e3a4cdb7d,Treiten,3226,500,BE,47.006501,7.162739,BE08
c59cf62b-8389-4072-a43a-cc014320254b,Ins,3232,496,BE,46.998131,7.1005443,BE08
7339732f-17e5-4887-ae5e-83b719fe3eee,Tschugg,3233,501,BE,47.023603,7.076657,BE08
15347977-b710-42e9-8023-6f1dcb5eeabd,Vinelz,3234,502,BE,47.032627,7.116639,BE08
96b2f86b-bad5-4435-abcc-0325b44705e9,Erlach,3235,492,BE,47.036227,7.0918574,BE08
e24253ee-e26e-4406-939e-231423725967,Gampelen,3236,495,BE,47.005691,7.055761,BE08
3c415407-df92-44ff-a1b2-9fd5562f79b6,Brüttelen,3237,491,BE,47.023031,7.151076,BE08
43c5cdf9-bc9c-46bc-ad98-6c58f2bb6683,Gals,3238,494,BE,47.02784,7.0739,BE08
13f022b1-0d97-4d63-923b-ba41778fa336,Lyss,3250,306,BE,47.076543,7.3165549,BE08
b3d54214-f145-4a3b-be8c-b964f4ea3a18,Rapperswil,3251,310,BE,47.08444,7.395477,BE08
15586e71-8348-4d57-a285-4b65a37844a6,Wengi,3251,394,BE,47.08444,7.395477,BE08
71b1446c-5263-43f6-8a6b-4bb557bd1695,Worben,3252,755,BE,47.100707,7.2965301,BE08
6507ab70-6137-4b93-bba4-727e41cb2f18,Schnottwil,3253,2461,SO,47.108755,7.3911957,SO02
21eb2723-2623-419a-a50c-ea1ff7414434,Messen,3254,2457,SO,47.090504,7.4503197,SO01
e0232cf8-59b8-4087-933e-edd3c6cf6e18,Rapperswil,3255,310,BE,47.058318,7.396824,BE08
70eb41e3-513c-4455-b627-af0f7839ce7f,Rapperswil,3256,310,BE,47.054388,7.444385,BE08
2864e9cb-4426-4a64-98b0-a54c330bac5d,Grossaffoltern,3257,303,BE,47.06887,7.3563962,BE08
11b76b88-768d-45fc-85dd-24ed387b6f4f,Grossaffoltern,3262,303,BE,47.04958,7.3295443,BE08
dcde920a-f7dc-47dd-98ca-10324927656b,Büetigen,3263,382,BE,47.105591,7.33811,BE08
060b1417-f59d-4bf0-9f11-3b628b60a5ee,Diessbach b. Büren,3264,385,BE,47.104293,7.363882,BE08
f41acfda-e47a-4b72-91d0-7771282d62cd,Seedorf,3266,312,BE,47.056157,7.326722,BE08
05e33873-9104-4ce6-9113-e93d64ee04a5,Seedorf,3267,312,BE,47.026663,7.312663,BE08
400b3b61-d3fa-410f-8b10-79444e33e7ce,Seedorf,3268,312,BE,47.024688,7.295837,BE08
db98fcdd-d0bb-403c-be45-87b633dec301,Aarberg,3270,301,BE,47.046153,7.2829621,BE08
ddf4cae9-85bc-428f-9a4b-3157f271ff38,Radelfingen,3271,309,BE,47.00338,7.268639,BE08
bf29e5a5-01cc-4adc-9f67-79da5f9fa713,Epsach,3272,735,BE,47.050023,7.224739,BE08
85e2345e-01c9-4031-b658-6ed758d868c0,Walperswil,3272,754,BE,47.050023,7.224739,BE08
bc5c8e90-331c-461a-b42a-f40a865eb5b6,Kappelen,3273,305,BE,47.062856,7.273573,BE08
5913db6a-abde-41d4-b760-8c3338987168,Bühl,3274,734,BE,47.065096,7.244276,BE08
9098929c-2dbc-48b9-af2a-175e4f46ab54,Hermrigen,3274,737,BE,47.065096,7.244276,BE08
47c3326b-c279-4248-8858-b8d6ca718538,Merzligen,3274,741,BE,47.065096,7.244276,BE08
2a00bc8e-e329-49aa-8f1f-b164703444ae,Greng,3280,2261,FR,46.935912,7.1429602,FR05
eb3b8d4e-4f74-4b5d-90ea-b291311084c9,Meyriez,3280,2271,FR,46.935912,7.1429602,FR05
f1baf04a-df8e-4a8b-8a82-e079104c9a1e,Murten,3280,2275,FR,46.935912,7.1429602,FR05
81096916-4680-4af2-89d4-5a3fa20bbf48,Bargen,3282,302,BE,47.033242,7.241203,BE08
e6f89266-e8d9-4d51-b9c6-6974a848b9c9,Kallnach,3283,304,BE,47.015673,7.2149757,BE08
d914df62-039d-4dbb-be55-8fe2d8d463fd,Fräschels,3284,2258,FR,46.996302,7.212769,FR05
3a4856cb-0567-4483-aba6-e3c4430faec1,Galmiz,3285,2259,FR,46.957451,7.149876,FR05
